[{"location":{"accepts_tips_in_store":true,"accepts_tips_on_delivery":false,"accepts_tips_on_pickup":false,"categories":[39,48],"category_names":["Food Truck","Pizza"],"delivery_menu_url":null,"extended_address":"","facebook_url":"https://www.facebook.com/stokedwoodfiredpizza","foodler_url":null,"fulfillment_types":["in_store"],"hours":"","id":8730,"image_url":"https://s3.amazonaws.com/levelup-production/merchants/6159/images/320x212_2x/stoked.png?1499891162","latitude":41.948708,"locality":"Raynham","longitude":-71.073116,"menu_url":null,"merchant_id":6159,"merchant_description_html":"","merchant_description":null,"merchant_name":"Stoked Fired Wood Pizza","merchant_tip_preference":"no preference","name":null,"nearby_location_count":1,"newsletter_url":null,"open_state":"open","open_state_display":"open","opentable_url":null,"phone":"","pickup_instructions":null,"pickup_menu_url":null,"postal_code":"02767","ready_time_estimate_in_minutes":null,"region":"MA","street_address":"58 Barons Way","twitter_url":null,"updated_at":"2018-01-12T13:59:20-05:00","yelp_url":null,"shown":true}},{"location":{"accepts_tips_in_store":true,"accepts_tips_on_delivery":false,"accepts_tips_on_pickup":false,"categories":[38,48,50,51],"category_names":["Quick Bite","Pizza","Sit-Down Restaurant","Sandwiches"],"delivery_menu_url":null,"extended_address":"","facebook_url":"http://www.facebook.com/pages/Easy-Pie/186848694660291","foodler_url":null,"fulfillment_types":["in_store"],"hours":"","id":179,"image_url":"https://s3.amazonaws.com/levelup-production/merchants/178/images/320x212_2x/3787472415_59d8a9b7ca_b.jpg?1499889552","latitude":42.181307,"locality":"Braintree","longitude":-71.014678,"menu_url":null,"merchant_id":178,"merchant_description_html":"","merchant_description":"Serving Chicago-style pizza","merchant_name":"The Easy Pie","merchant_tip_preference":"no preference","name":null,"nearby_location_count":1,"newsletter_url":null,"open_state":"open","open_state_display":"open","opentable_url":null,"phone":"(781) 848-8110","pickup_instructions":null,"pickup_menu_url":null,"postal_code":"02184","ready_time_estimate_in_minutes":null,"region":"MA","street_address":"1701 Washington Street","twitter_url":null,"updated_at":"2017-07-12T15:59:26-04:00","yelp_url":"http://www.yelp.com/biz/easy-pie-braintree","shown":true}},{"location":{"accepts_tips_in_store":true,"accepts_tips_on_delivery":false,"accepts_tips_on_pickup":false,"categories":[35],"category_names":["Cafe"],"delivery_menu_url":null,"extended_address":"EMD Serono","facebook_url":"https://www.facebook.com/EpicureanFeastCafes","foodler_url":null,"fulfillment_types":["in_store"],"hours":"","id":12391,"image_url":"https://s3.amazonaws.com/levelup-production/merchants/5705/images/320x212_2x/epicurean.png?1499891003","latitude":42.166568,"locality":"Rockland","longitude":-70.901915,"menu_url":null,"merchant_id":5705,"merchant_description_html":"","merchant_description":null,"merchant_name":"Epicurean Feast","merchant_tip_preference":"no preference","name":"Serono Rockland LPM","nearby_location_count":13,"newsletter_url":null,"open_state":"open","open_state_display":"open","opentable_url":null,"phone":"(781) 353-4319","pickup_instructions":null,"pickup_menu_url":null,"postal_code":"02370","ready_time_estimate_in_minutes":null,"region":"MA","street_address":"One Technology Place","twitter_url":"https://twitter.com/@epicureanfeast","updated_at":"2017-07-12T16:23:26-04:00","yelp_url":null,"shown":true}},{"location":{"accepts_tips_in_store":true,"accepts_tips_on_delivery":false,"accepts_tips_on_pickup":false,"categories":[411],"category_names":["Retail: Other"],"delivery_menu_url":null,"extended_address":null,"facebook_url":null,"foodler_url":null,"fulfillment_types":["in_store"],"hours":null,"id":208913,"image_url":"https://s3.amazonaws.com/levelup-production/merchants/203549/images/320x212_2x/no_merchant_image.png?1499974429","latitude":42.166568,"locality":"Rockland","longitude":-70.901915,"menu_url":null,"merchant_id":203549,"merchant_description_html":"","merchant_description":"Retail: Other","merchant_name":"Eurest","merchant_tip_preference":"no preference","name":"Merck - Rockland","nearby_location_count":5,"newsletter_url":null,"open_state":"open","open_state_display":"open","opentable_url":null,"phone":"(781) 681-2987","pickup_instructions":null,"pickup_menu_url":null,"postal_code":"021370","ready_time_estimate_in_minutes":null,"region":"MA","street_address":"1 Technology Place","twitter_url":null,"updated_at":"2017-11-30T17:43:45-05:00","yelp_url":null,"shown":true}},{"location":{"accepts_tips_in_store":false,"accepts_tips_on_delivery":false,"accepts_tips_on_pickup":false,"categories":[38],"category_names":["Quick Bite"],"delivery_menu_url":null,"extended_address":"","facebook_url":null,"foodler_url":null,"fulfillment_types":["in_store"],"hours":"6 am - 2 pm","id":83412,"image_url":"https://s3.amazonaws.com/levelup-production/merchants/3464/images/320x212_2x/sebastians.jpg?1499890455","latitude":42.157844,"locality":"Norwell","longitude":-70.877539,"menu_url":null,"merchant_id":3464,"merchant_description_html":"","merchant_description":null,"merchant_name":"Sebastians","merchant_tip_preference":"unwanted","name":"Longwater Cafe","nearby_location_count":9,"newsletter_url":null,"open_state":"open","open_state_display":"open","opentable_url":null,"phone":"","pickup_instructions":null,"pickup_menu_url":null,"postal_code":"02062","ready_time_estimate_in_minutes":null,"region":"MA","street_address":"141 Longwater Drive","twitter_url":null,"updated_at":"2017-07-12T16:14:19-04:00","yelp_url":null,"shown":true}},{"location":{"accepts_tips_in_store":false,"accepts_tips_on_delivery":false,"accepts_tips_on_pickup":false,"categories":[35],"category_names":["Cafe"],"delivery_menu_url":null,"extended_address":"","facebook_url":"https://www.facebook.com/OfficialCasualMaleXL","foodler_url":null,"fulfillment_types":["in_store"],"hours":null,"id":3756,"image_url":"https://s3.amazonaws.com/levelup-production/merchants/3201/images/320x212_2x/corporatechefs.jpg?1499890413","latitude":42.163253,"locality":"Canton","longitude":-71.112009,"menu_url":null,"merchant_id":3201,"merchant_description_html":"","merchant_description":null,"merchant_name":"Casual Male","merchant_tip_preference":"unwanted","name":null,"nearby_location_count":1,"newsletter_url":null,"open_state":"open","open_state_display":"open","opentable_url":null,"phone":"(781) 828-9300","pickup_instructions":null,"pickup_menu_url":null,"postal_code":"02021","ready_time_estimate_in_minutes":null,"region":"MA","street_address":"555 Turnpike St","twitter_url":"https://twitter.com/@casualmalexl","updated_at":"2017-07-12T16:13:39-04:00","yelp_url":"http://www.yelp.com/biz/casual-male-canton","shown":true}},{"location":{"accepts_tips_in_store":true,"accepts_tips_on_delivery":false,"accepts_tips_on_pickup":false,"categories":[93],"category_names":["Coffee Shop"],"delivery_menu_url":null,"extended_address":"Kung Fu Tea","facebook_url":"https://www.facebook.com/pages/Kung-Fu-Tea-%E5%8A%9F%E5%A4%AB%E8%8C%B6/281140911015","foodler_url":null,"fulfillment_types":["in_store"],"hours":"","id":217208,"image_url":"https://s3.amazonaws.com/levelup-production/merchants/6611/images/320x212_2x/kftmerchant_image.png?1499891299","latitude":42.220093,"locality":"Braintree","longitude":-71.022662,"menu_url":null,"merchant_id":6611,"merchant_description_html":"","merchant_description":null,"merchant_name":"Kung Fu Tea","merchant_tip_preference":"no preference","name":"South Shore Plaza","nearby_location_count":9,"newsletter_url":null,"open_state":"open","open_state_display":"open","opentable_url":null,"phone":"(781) 848-1988","pickup_instructions":null,"pickup_menu_url":null,"postal_code":"02184","ready_time_estimate_in_minutes":null,"region":"MA","street_address":"250 Granite Street","twitter_url":"https://twitter.com/KungFuTeaUSA","updated_at":"2017-08-02T13:31:26-04:00","yelp_url":"http://www.yelp.com/biz/kung-fu-tea-new-york-3","shown":true}},{"location":{"accepts_tips_in_store":true,"accepts_tips_on_delivery":true,"accepts_tips_on_pickup":true,"categories":[51],"category_names":["Sandwiches"],"delivery_menu_url":"https://api.thelevelup.com/v15/order_ahead/menus/652747","extended_address":"","facebook_url":"https://www.facebook.com/potbellysandwichshop","foodler_url":null,"fulfillment_types":["delivery","in_store","pickup"],"hours":"Mon-Sun: 11:00am - 9:00pm","id":23154,"image_url":"https://s3.amazonaws.com/levelup-production/merchants/10829/images/320x212_2x/potbelly_merchant.jpg?1509028217","latitude":42.220472,"locality":"Braintree","longitude":-71.030811,"menu_url":null,"merchant_id":10829,"merchant_description_html":"","merchant_description":null,"merchant_name":"Potbelly","merchant_tip_preference":"no preference","name":"Braintree","nearby_location_count":6,"newsletter_url":null,"open_state":"open","open_state_display":"open","opentable_url":null,"phone":"(781) 602-6140","pickup_instructions":"For pick-up orders, no need to wait in line! Head to the normal pick-up area.","pickup_menu_url":"https://api.thelevelup.com/v15/order_ahead/menus/652747","postal_code":"02184","ready_time_estimate_in_minutes":11,"region":"MA","street_address":"30 Forbes Rd.","twitter_url":"https://twitter.com/potbelly","updated_at":"2018-02-07T02:05:57-05:00","yelp_url":null,"shown":true}},{"location":{"accepts_tips_in_store":true,"accepts_tips_on_delivery":false,"accepts_tips_on_pickup":false,"categories":[50],"category_names":["Sit-Down Restaurant"],"delivery_menu_url":null,"extended_address":"","facebook_url":"https://www.facebook.com/thefeistygreek","foodler_url":"http://www.foodler.com/the-feisty-greek/10538","fulfillment_types":["in_store"],"hours":null,"id":1631,"image_url":"https://s3.amazonaws.com/levelup-production/merchants/1454/images/320x212_2x/thefeistygreek.jpg?1499889911","latitude":42.172633,"locality":"Norwood","longitude":-71.194064,"menu_url":null,"merchant_id":1454,"merchant_description_html":"","merchant_description":null,"merchant_name":"The Feisty Greek","merchant_tip_preference":"no preference","name":null,"nearby_location_count":1,"newsletter_url":null,"open_state":"open","open_state_display":"open","opentable_url":null,"phone":"(781) 769-1982","pickup_instructions":null,"pickup_menu_url":null,"postal_code":"02062","ready_time_estimate_in_minutes":null,"region":"MA","street_address":"38 Vanderbilt Avenue","twitter_url":"https://twitter.com/@TheFeistyGreek","updated_at":"2017-07-12T16:05:17-04:00","yelp_url":"http://www.yelp.com/biz/the-feisty-greek-norwood","shown":true}},{"location":{"accepts_tips_in_store":true,"accepts_tips_on_delivery":false,"accepts_tips_on_pickup":false,"categories":[35],"category_names":["Cafe"],"delivery_menu_url":null,"extended_address":"825 University Avenue","facebook_url":null,"foodler_url":null,"fulfillment_types":["in_store"],"hours":"","id":5349,"image_url":"https://s3.amazonaws.com/levelup-production/merchants/4555/images/320x212_2x/coming_soon.jpg?1499890710","latitude":42.200658,"locality":"Norwood","longitude":-71.175053,"menu_url":null,"merchant_id":4555,"merchant_description_html":"","merchant_description":null,"merchant_name":"Mo \u0026 Joe's Cafe at Instron","merchant_tip_preference":"no preference","name":null,"nearby_location_count":1,"newsletter_url":null,"open_state":"open","open_state_display":"open","opentable_url":null,"phone":"(617) 270-0270","pickup_instructions":null,"pickup_menu_url":null,"postal_code":"02062","ready_time_estimate_in_minutes":null,"region":"MA","street_address":"Mo \u0026 Joe's Cafe at Instron","twitter_url":null,"updated_at":"2017-07-12T16:18:35-04:00","yelp_url":null,"shown":true}},{"location":{"accepts_tips_in_store":true,"accepts_tips_on_delivery":false,"accepts_tips_on_pickup":false,"categories":[38],"category_names":["Quick Bite"],"delivery_menu_url":null,"extended_address":"","facebook_url":null,"foodler_url":null,"fulfillment_types":["in_store"],"hours":"","id":721,"image_url":"https://s3.amazonaws.com/levelup-production/merchants/656/images/320x212_2x/olympicpizza.jpg?1499889699","latitude":42.237041,"locality":"Hyde Park","longitude":-71.13226,"menu_url":null,"merchant_id":656,"merchant_description_html":"","merchant_description":null,"merchant_name":"Olympic Pizza","merchant_tip_preference":"no preference","name":null,"nearby_location_count":1,"newsletter_url":null,"open_state":"open","open_state_display":"open","opentable_url":null,"phone":"(617) 361-7070","pickup_instructions":null,"pickup_menu_url":null,"postal_code":"02136","ready_time_estimate_in_minutes":null,"region":"MA","street_address":"187 Wolcott Sq.","twitter_url":null,"updated_at":"2017-07-12T16:01:46-04:00","yelp_url":null,"shown":true}},{"location":{"accepts_tips_in_store":false,"accepts_tips_on_delivery":false,"accepts_tips_on_pickup":false,"categories":[32,35,38],"category_names":["Breakfast","Cafe","Quick Bite"],"delivery_menu_url":null,"extended_address":"","facebook_url":null,"foodler_url":null,"fulfillment_types":["in_store"],"hours":"","id":296732,"image_url":"https://s3.amazonaws.com/levelup-production/merchants/5978/images/320x212_2x/2016-05-10.jpg?1499891091","latitude":42.231024,"locality":"Dedham","longitude":-71.176414,"menu_url":null,"merchant_id":5978,"merchant_description_html":"","merchant_description":null,"merchant_name":"Caffè Nero - The Italian Coffee Company","merchant_tip_preference":"unwanted","name":"Legacy Place","nearby_location_count":18,"newsletter_url":null,"open_state":"open","open_state_display":"open","opentable_url":null,"phone":"","pickup_instructions":null,"pickup_menu_url":null,"postal_code":"02026","ready_time_estimate_in_minutes":null,"region":"MA","street_address":"218 Legacy Place","twitter_url":null,"updated_at":"2017-12-20T11:04:11-05:00","yelp_url":null,"shown":true}},{"location":{"accepts_tips_in_store":false,"accepts_tips_on_delivery":false,"accepts_tips_on_pickup":false,"categories":[38,53],"category_names":["Quick Bite","Vegan/Vegetarian Friendly"],"delivery_menu_url":null,"extended_address":"","facebook_url":"https://www.facebook.com/sweetgreen","foodler_url":null,"fulfillment_types":["in_store"],"hours":"Mon - Sun 10:30am - 10pm","id":297813,"image_url":"https://s3.amazonaws.com/levelup-production/merchants/4035/images/320x212_2x/Sweetgreen_Email_Image.png?1499890593","latitude":42.230904,"locality":"Dedham","longitude":-71.177343,"menu_url":null,"merchant_id":4035,"merchant_description_html":"","merchant_description":null,"merchant_name":"sweetgreen","merchant_tip_preference":"unwanted","name":"Legacy Place","nearby_location_count":12,"newsletter_url":null,"open_state":"open","open_state_display":"open","opentable_url":null,"phone":"","pickup_instructions":null,"pickup_menu_url":null,"postal_code":"02026","ready_time_estimate_in_minutes":null,"region":"MA","street_address":"680 Legacy Pl","twitter_url":"https://twitter.com/@sweetgreen","updated_at":"2018-01-31T15:20:59-05:00","yelp_url":"http://www.yelp.com/biz/sweetgreen-washington-2","shown":true}},{"location":{"accepts_tips_in_store":true,"accepts_tips_on_delivery":false,"accepts_tips_on_pickup":false,"categories":[50],"category_names":["Sit-Down Restaurant"],"delivery_menu_url":null,"extended_address":"","facebook_url":"http://www.facebook.com/pages/Balduccis-House-of-Pizza/158602634260","foodler_url":null,"fulfillment_types":["in_store"],"hours":null,"id":860,"image_url":"https://s3.amazonaws.com/levelup-production/merchants/779/images/320x212_2x/BalduccisHouseofPizza.jpg?1499889731","latitude":42.273408,"locality":"Quincy","longitude":-71.025213,"menu_url":null,"merchant_id":779,"merchant_description_html":"","merchant_description":null,"merchant_name":"Balducci's House of Pizza","merchant_tip_preference":"no preference","name":null,"nearby_location_count":1,"newsletter_url":null,"open_state":"open","open_state_display":"open","opentable_url":null,"phone":"(617) 328-0448","pickup_instructions":null,"pickup_menu_url":null,"postal_code":"02171","ready_time_estimate_in_minutes":null,"region":"MA","street_address":"35 Billings Road","twitter_url":null,"updated_at":"2017-07-12T16:02:15-04:00","yelp_url":"http://www.yelp.com/biz/balduccis-house-of-pizza-quincy","shown":true}},{"location":{"accepts_tips_in_store":true,"accepts_tips_on_delivery":false,"accepts_tips_on_pickup":false,"categories":[35,37,52],"category_names":["Cafe","Early Bird","Sweets/Dessert"],"delivery_menu_url":null,"extended_address":"","facebook_url":"https://www.facebook.com/flatblackcoffee","foodler_url":null,"fulfillment_types":["in_store"],"hours":"","id":2879,"image_url":"https://s3.amazonaws.com/levelup-production/merchants/2441/images/320x212_2x/flatblackcoffeeco.JPG?1499890198","latitude":42.272397,"locality":"Boston","longitude":-71.068382,"menu_url":null,"merchant_id":2441,"merchant_description_html":"","merchant_description":null,"merchant_name":"Flat Black Coffee","merchant_tip_preference":"no preference","name":null,"nearby_location_count":5,"newsletter_url":null,"open_state":"open","open_state_display":"open","opentable_url":null,"phone":"(617) 298-1800","pickup_instructions":null,"pickup_menu_url":null,"postal_code":"02124","ready_time_estimate_in_minutes":null,"region":"MA","street_address":"1170 Washington Street","twitter_url":"https://twitter.com/@FlatBlackCoffee","updated_at":"2017-07-12T16:10:04-04:00","yelp_url":"http://www.yelp.com/biz/flat-black-coffee-company-boston-2","shown":true}},{"location":{"accepts_tips_in_store":true,"accepts_tips_on_delivery":false,"accepts_tips_on_pickup":false,"categories":[53,57],"category_names":["Vegan/Vegetarian Friendly","Grocery"],"delivery_menu_url":null,"extended_address":"","facebook_url":"http://facebook.com/bostoncheesecellar","foodler_url":null,"fulfillment_types":["in_store"],"hours":"Mon: closed\r\nTues - Fri: 11a - 7p\r\nSat: 10a - 7p\r\nSun: 12p - 5p","id":10839,"image_url":"https://s3.amazonaws.com/levelup-production/merchants/6746/images/320x212_2x/CHED_Mix_2.jpg?1499891331","latitude":42.286689,"locality":"Roslindale","longitude":-71.130014,"menu_url":null,"merchant_id":6746,"merchant_description_html":"","merchant_description":null,"merchant_name":"Boston Cheese Cellar","merchant_tip_preference":"no preference","name":null,"nearby_location_count":1,"newsletter_url":null,"open_state":"open","open_state_display":"open","opentable_url":null,"phone":"(617) 325-2500","pickup_instructions":null,"pickup_menu_url":null,"postal_code":"02131","ready_time_estimate_in_minutes":null,"region":"MA","street_address":"18 Birch Street","twitter_url":null,"updated_at":"2017-07-12T16:29:15-04:00","yelp_url":null,"shown":true}},{"location":{"accepts_tips_in_store":true,"accepts_tips_on_delivery":false,"accepts_tips_on_pickup":false,"categories":[38],"category_names":["Quick Bite"],"delivery_menu_url":null,"extended_address":"","facebook_url":null,"foodler_url":null,"fulfillment_types":["in_store"],"hours":"","id":2592,"image_url":"https://s3.amazonaws.com/levelup-production/merchants/1199/images/320x212_2x/The_Real_Deal.jpg?1499889835","latitude":42.285711,"locality":"West Roxbury","longitude":-71.155574,"menu_url":null,"merchant_id":1199,"merchant_description_html":"","merchant_description":null,"merchant_name":"The Real Deal","merchant_tip_preference":"no preference","name":null,"nearby_location_count":2,"newsletter_url":null,"open_state":"open","open_state_display":"open","opentable_url":null,"phone":"(617) 325-0754","pickup_instructions":null,"pickup_menu_url":null,"postal_code":"02132","ready_time_estimate_in_minutes":null,"region":"MA","street_address":"1882 Centre St","twitter_url":null,"updated_at":"2017-07-12T16:03:59-04:00","yelp_url":"http://www.yelp.com/biz/the-real-deal-jamaica-plain","shown":true}},{"location":{"accepts_tips_in_store":true,"accepts_tips_on_delivery":false,"accepts_tips_on_pickup":false,"categories":[50],"category_names":["Sit-Down Restaurant"],"delivery_menu_url":null,"extended_address":"","facebook_url":"http://www.facebook.com/pages/Savin-Bar-and-Kitchen/169302323085830","foodler_url":null,"fulfillment_types":["in_store"],"hours":"M-F: 1130A-1230A\r\nS\u0026S: 10A-1A","id":380,"image_url":"https://s3.amazonaws.com/levelup-production/merchants/353/images/320x212_2x/savinbarkitchen.jpg?1499889604","latitude":42.311635,"locality":"Dorchester","longitude":-71.053704,"menu_url":null,"merchant_id":353,"merchant_description_html":"","merchant_description":null,"merchant_name":"Savin Bar and Kitchen","merchant_tip_preference":"no preference","name":null,"nearby_location_count":1,"newsletter_url":null,"open_state":"open","open_state_display":"open","opentable_url":null,"phone":"(617) 288-7500","pickup_instructions":null,"pickup_menu_url":null,"postal_code":"02125","ready_time_estimate_in_minutes":null,"region":"MA","street_address":"112 Savin Hill Avenue","twitter_url":"https://twitter.com/http://twitter.com/#!/savinboston","updated_at":"2017-12-11T17:09:35-05:00","yelp_url":"http://www.yelp.com/biz/savin-bar-and-kitchen-dorchester","shown":true}},{"location":{"accepts_tips_in_store":true,"accepts_tips_on_delivery":false,"accepts_tips_on_pickup":false,"categories":[35],"category_names":["Cafe"],"delivery_menu_url":null,"extended_address":"Unit 7","facebook_url":"https://www.facebook.com/tropicalsmoothiecafe","foodler_url":null,"fulfillment_types":["in_store","pickup"],"hours":"M-wed  7:00a - 10:00p\r\nThursday     Closed Thanksgiving\r\nF          7:00a - 11:00p\r\nSa       8:00a - 11:00p\r\nSu       9:00a - 9:00p","id":16962,"image_url":"https://s3.amazonaws.com/levelup-production/merchants/6449/images/320x212_2x/TSCLogo_LU_PNG.png?1499891251","latitude":41.794281,"locality":"Seekonk","longitude":-71.324616,"menu_url":null,"merchant_id":6449,"merchant_description_html":"","merchant_description":null,"merchant_name":"Tropical Smoothie Cafe","merchant_tip_preference":"no preference","name":"Seekonk","nearby_location_count":6,"newsletter_url":null,"open_state":"open","open_state_display":"open","opentable_url":null,"phone":"(774) 229-2939","pickup_instructions":null,"pickup_menu_url":"https://api.thelevelup.com/v15/order_ahead/menus/656887","postal_code":"02771","ready_time_estimate_in_minutes":null,"region":"MA","street_address":"20 Commerce Way","twitter_url":"https://twitter.com/TSmoothieCafe","updated_at":"2018-02-07T07:25:55-05:00","yelp_url":null,"shown":true}},{"location":{"accepts_tips_in_store":true,"accepts_tips_on_delivery":false,"accepts_tips_on_pickup":false,"categories":[340],"category_names":["Coffee and Tea"],"delivery_menu_url":null,"extended_address":"","facebook_url":"https://www.facebook.com/VideoUnderground?fref=ts","foodler_url":null,"fulfillment_types":["in_store"],"hours":"","id":1924,"image_url":"https://s3.amazonaws.com/levelup-production/merchants/1709/images/320x212_2x/iStock_000015614224XSmall.jpg?1499889996","latitude":42.312337,"locality":"Jamaica Plain","longitude":-71.101841,"menu_url":null,"merchant_id":1709,"merchant_description_html":"","merchant_description":"Coffee and Tea","merchant_name":"The Video Underground Inc","merchant_tip_preference":"no preference","name":null,"nearby_location_count":1,"newsletter_url":null,"open_state":"open","open_state_display":"open","opentable_url":null,"phone":"(617) 522-4949","pickup_instructions":null,"pickup_menu_url":null,"postal_code":"02130","ready_time_estimate_in_minutes":null,"region":"MA","street_address":"3203 Washington St","twitter_url":null,"updated_at":"2017-12-11T13:39:28-05:00","yelp_url":"http://www.yelp.com/biz/the-video-underground-jamaica-plain-2","shown":true}},{"location":{"accepts_tips_in_store":false,"accepts_tips_on_delivery":false,"accepts_tips_on_pickup":false,"categories":[36],"category_names":["Convenience"],"delivery_menu_url":null,"extended_address":"","facebook_url":null,"foodler_url":null,"fulfillment_types":["in_store"],"hours":"","id":1073,"image_url":"https://s3.amazonaws.com/levelup-production/merchants/964/images/320x212_2x/cityfeedandsupply_d.jpg?1499889774","latitude":42.312359,"locality":"Boston","longitude":-71.113912,"menu_url":null,"merchant_id":964,"merchant_description_html":"","merchant_description":null,"merchant_name":"City Feed \u0026 Supply","merchant_tip_preference":"unwanted","name":null,"nearby_location_count":2,"newsletter_url":null,"open_state":"open","open_state_display":"open","opentable_url":null,"phone":"(617) 524-1700","pickup_instructions":null,"pickup_menu_url":null,"postal_code":"02130","ready_time_estimate_in_minutes":null,"region":"MA","street_address":"668 Centre Street","twitter_url":null,"updated_at":"2017-07-12T16:03:08-04:00","yelp_url":null,"shown":true}},{"location":{"accepts_tips_in_store":false,"accepts_tips_on_delivery":false,"accepts_tips_on_pickup":false,"categories":[35],"category_names":["Cafe"],"delivery_menu_url":null,"extended_address":"","facebook_url":"https://www.facebook.com/hatchedboston","foodler_url":null,"fulfillment_types":["in_store"],"hours":"","id":1997,"image_url":"https://s3.amazonaws.com/levelup-production/merchants/1754/images/320x212_2x/320703_274318089263694_121551797873658_1088773_717411573_n.jpeg?1499890008","latitude":42.312472,"locality":"Jamaica Plain","longitude":-71.114028,"menu_url":null,"merchant_id":1754,"merchant_description_html":"","merchant_description":"Cafe","merchant_name":"Hatched","merchant_tip_preference":"unwanted","name":null,"nearby_location_count":1,"newsletter_url":null,"open_state":"open","open_state_display":"open","opentable_url":null,"phone":"(617) 524-5402","pickup_instructions":null,"pickup_menu_url":null,"postal_code":"02130","ready_time_estimate_in_minutes":null,"region":"MA","street_address":"668 Centre St","twitter_url":null,"updated_at":"2017-11-30T15:22:43-05:00","yelp_url":"http://www.yelp.com/biz/hatched-jamaica-plain","shown":true}},{"location":{"accepts_tips_in_store":true,"accepts_tips_on_delivery":false,"accepts_tips_on_pickup":false,"categories":[34,44,48],"category_names":["Burgers","Mediterranean","Pizza"],"delivery_menu_url":null,"extended_address":"","facebook_url":"https://www.facebook.com/CafeBeirutJP","foodler_url":"http://www.foodler.com/cafe-beirut/11799","fulfillment_types":["in_store"],"hours":"","id":4460,"image_url":"https://s3.amazonaws.com/levelup-production/merchants/3739/images/320x212_2x/cafebeirut.jpg?1499890523","latitude":42.31303,"locality":"Jamaica Plain","longitude":-71.113999,"menu_url":null,"merchant_id":3739,"merchant_description_html":"","merchant_description":null,"merchant_name":"Cafe Beirut","merchant_tip_preference":"no preference","name":null,"nearby_location_count":1,"newsletter_url":null,"open_state":"open","open_state_display":"open","opentable_url":null,"phone":"(617) 522-7264","pickup_instructions":null,"pickup_menu_url":null,"postal_code":"02130","ready_time_estimate_in_minutes":null,"region":"MA","street_address":"654 Centre St","twitter_url":null,"updated_at":"2017-09-07T14:34:13-04:00","yelp_url":"http://www.yelp.com/biz/cafe-beirut-boston","shown":true}},{"location":{"accepts_tips_in_store":true,"accepts_tips_on_delivery":false,"accepts_tips_on_pickup":false,"categories":[38,52],"category_names":["Quick Bite","Sweets/Dessert"],"delivery_menu_url":null,"extended_address":"","facebook_url":null,"foodler_url":null,"fulfillment_types":["in_store"],"hours":"","id":797,"image_url":"https://s3.amazonaws.com/levelup-production/merchants/713/images/320x212_2x/WhenPigsFly.jpg?1499889713","latitude":42.314372,"locality":"Jamaica Plain","longitude":-71.114136,"menu_url":null,"merchant_id":713,"merchant_description_html":"","merchant_description":null,"merchant_name":"When Pigs Fly Bakery","merchant_tip_preference":"no preference","name":null,"nearby_location_count":3,"newsletter_url":null,"open_state":"open","open_state_display":"open","opentable_url":null,"phone":"","pickup_instructions":null,"pickup_menu_url":null,"postal_code":"02130","ready_time_estimate_in_minutes":null,"region":"MA","street_address":"613 Centre Street","twitter_url":null,"updated_at":"2017-07-12T16:01:57-04:00","yelp_url":"http://www.yelp.com/biz/when-pigs-fly-brookline","shown":true}},{"location":{"accepts_tips_in_store":true,"accepts_tips_on_delivery":false,"accepts_tips_on_pickup":false,"categories":[35],"category_names":["Cafe"],"delivery_menu_url":null,"extended_address":"","facebook_url":null,"foodler_url":null,"fulfillment_types":["in_store"],"hours":null,"id":3203,"image_url":"https://s3.amazonaws.com/levelup-production/merchants/2753/images/320x212_2x/corporatechefs_wellsave.jpg?1499890296","latitude":42.292297,"locality":"Newton","longitude":-71.198728,"menu_url":null,"merchant_id":2753,"merchant_description_html":"","merchant_description":null,"merchant_name":"Wells Ave Cafe","merchant_tip_preference":"no preference","name":null,"nearby_location_count":1,"newsletter_url":null,"open_state":"open","open_state_display":"open","opentable_url":null,"phone":"(617) 965-2208","pickup_instructions":null,"pickup_menu_url":null,"postal_code":"02459","ready_time_estimate_in_minutes":null,"region":"MA","street_address":"85 Wells Avenue","twitter_url":null,"updated_at":"2017-07-12T16:11:44-04:00","yelp_url":"http://www.yelp.com/biz/wells-center-cafe-newton","shown":true}},{"location":{"accepts_tips_in_store":true,"accepts_tips_on_delivery":false,"accepts_tips_on_pickup":false,"categories":[42,48,53],"category_names":["Italian","Pizza","Vegan/Vegetarian Friendly"],"delivery_menu_url":null,"extended_address":"","facebook_url":"https://www.facebook.com/hearthpizzeria","foodler_url":null,"fulfillment_types":["in_store"],"hours":"Sun-Thur 11:30am – 9:00pm \r\n\u0003Fri-Sat 11:30am – 10:00pm","id":10440,"image_url":"https://s3.amazonaws.com/levelup-production/merchants/6638/images/320x212_2x/hearth.png?1499891308","latitude":42.280104,"locality":"Needham","longitude":-71.236122,"menu_url":null,"merchant_id":6638,"merchant_description_html":"","merchant_description":null,"merchant_name":"Hearth Pizzeria","merchant_tip_preference":"no preference","name":null,"nearby_location_count":1,"newsletter_url":null,"open_state":"open","open_state_display":"open","opentable_url":null,"phone":"(508) 202-8762","pickup_instructions":null,"pickup_menu_url":null,"postal_code":"02492","ready_time_estimate_in_minutes":null,"region":"MA","street_address":"974 Great Plain Ave","twitter_url":"https://twitter.com/hearthpizzeria","updated_at":"2017-07-12T16:28:31-04:00","yelp_url":"http://www.yelp.com/biz/hearth-pizzeria-needham","shown":true}},{"location":{"accepts_tips_in_store":true,"accepts_tips_on_delivery":false,"accepts_tips_on_pickup":false,"categories":[28,31,32,33,34,49,50],"category_names":["American","Bar","Breakfast","Brunch","Burgers","Pub Food","Sit-Down Restaurant"],"delivery_menu_url":null,"extended_address":"","facebook_url":"https://www.facebook.com/theparamountboston","foodler_url":null,"fulfillment_types":["in_store"],"hours":null,"id":3634,"image_url":"https://s3.amazonaws.com/levelup-production/merchants/3092/images/320x212_2x/theparamount.jpg?1499890387","latitude":42.335493,"locality":"Boston","longitude":-71.037869,"menu_url":null,"merchant_id":3092,"merchant_description_html":"","merchant_description":null,"merchant_name":"Paramount","merchant_tip_preference":"no preference","name":null,"nearby_location_count":1,"newsletter_url":null,"open_state":"open","open_state_display":"open","opentable_url":null,"phone":"(617) 269-9999","pickup_instructions":null,"pickup_menu_url":null,"postal_code":"02127","ready_time_estimate_in_minutes":null,"region":"MA","street_address":"667 East Broadway","twitter_url":"https://twitter.com/@paramount44","updated_at":"2017-07-12T16:13:12-04:00","yelp_url":"http://www.yelp.com/biz/the-paramount-boston-2","shown":true}},{"location":{"accepts_tips_in_store":true,"accepts_tips_on_delivery":false,"accepts_tips_on_pickup":false,"categories":[368],"category_names":["Juice"],"delivery_menu_url":null,"extended_address":"","facebook_url":"https://www.facebook.com/juiceboxbos","foodler_url":null,"fulfillment_types":["in_store"],"hours":"Monday-Friday: 7:00 am - 6:00pm\r\nSaturday-Sunday: 8:00 am - 3:00 pm","id":10914,"image_url":"https://s3.amazonaws.com/levelup-production/merchants/6763/images/320x212_2x/JUICE-Box-LOGO.jpg?1499891337","latitude":42.337869,"locality":"Boston","longitude":-71.049678,"menu_url":null,"merchant_id":6763,"merchant_description_html":"","merchant_description":"Juice","merchant_name":"The Juice Box","merchant_tip_preference":"no preference","name":"The Juice Box","nearby_location_count":1,"newsletter_url":null,"open_state":"open","open_state_display":"open","opentable_url":null,"phone":"(857) 930-4510","pickup_instructions":null,"pickup_menu_url":null,"postal_code":"02127","ready_time_estimate_in_minutes":null,"region":"MA","street_address":"359 West Broadway","twitter_url":"http://www.twitter.com/juiceboxbos","updated_at":"2017-12-12T10:32:58-05:00","yelp_url":"http://www.yelp.com/biz/the-juice-box-boston","shown":true}},{"location":{"accepts_tips_in_store":true,"accepts_tips_on_delivery":false,"accepts_tips_on_pickup":false,"categories":[35,48],"category_names":["Cafe","Pizza"],"delivery_menu_url":null,"extended_address":"","facebook_url":null,"foodler_url":"http://www.foodler.com/laz-cafe/964","fulfillment_types":["in_store"],"hours":"","id":8764,"image_url":"https://s3.amazonaws.com/levelup-production/merchants/6185/images/320x212_2x/laz.jpg?1499891168","latitude":42.336478,"locality":"Boston","longitude":-71.076543,"menu_url":null,"merchant_id":6185,"merchant_description_html":"","merchant_description":null,"merchant_name":"Laz Cafe","merchant_tip_preference":"no preference","name":"Laz Cafe","nearby_location_count":1,"newsletter_url":null,"open_state":"open","open_state_display":"open","opentable_url":null,"phone":"(617) 536-0066","pickup_instructions":null,"pickup_menu_url":null,"postal_code":"02118","ready_time_estimate_in_minutes":null,"region":"MA","street_address":"1746 Washington St","twitter_url":null,"updated_at":"2017-07-12T16:26:13-04:00","yelp_url":"http://www.yelp.com/biz/laz-cafe-boston","shown":true}},{"location":{"accepts_tips_in_store":true,"accepts_tips_on_delivery":false,"accepts_tips_on_pickup":false,"categories":[35,51],"category_names":["Cafe","Sandwiches"],"delivery_menu_url":null,"extended_address":"","facebook_url":null,"foodler_url":"http://www.foodler.com/code-10/10960","fulfillment_types":["in_store"],"hours":"","id":8796,"image_url":"https://s3.amazonaws.com/levelup-production/merchants/6197/images/320x212_2x/code10.gif?1499891173","latitude":42.337925,"locality":"Boston","longitude":-71.074729,"menu_url":null,"merchant_id":6197,"merchant_description_html":"","merchant_description":null,"merchant_name":"Code 10","merchant_tip_preference":"no preference","name":null,"nearby_location_count":1,"newsletter_url":null,"open_state":"open","open_state_display":"open","opentable_url":null,"phone":"","pickup_instructions":null,"pickup_menu_url":null,"postal_code":"02118","ready_time_estimate_in_minutes":null,"region":"MA","street_address":"1638 Washington St","twitter_url":null,"updated_at":"2017-07-12T16:26:24-04:00","yelp_url":"http://www.yelp.com/biz/code-10-boston","shown":true}},{"location":{"accepts_tips_in_store":false,"accepts_tips_on_delivery":false,"accepts_tips_on_pickup":false,"categories":[32,35,37,38,51],"category_names":["Breakfast","Cafe","Early Bird","Quick Bite","Sandwiches"],"delivery_menu_url":null,"extended_address":"","facebook_url":"https://www.facebook.com/GreenTCoffee","foodler_url":null,"fulfillment_types":["in_store"],"hours":"M-F: 5:30a-6p\r\nSat: 7a–6p\r\nSun: 7a–5p","id":1505,"image_url":"https://s3.amazonaws.com/levelup-production/merchants/1346/images/320x212_2x/Green_T_Coffe.jpg?1499889879","latitude":42.333575,"locality":"Boston","longitude":-71.105775,"menu_url":null,"merchant_id":1346,"merchant_description_html":"","merchant_description":null,"merchant_name":"The Green T Coffee Shop","merchant_tip_preference":"unwanted","name":null,"nearby_location_count":1,"newsletter_url":null,"open_state":"open","open_state_display":"open","opentable_url":null,"phone":"(617) 487-8409","pickup_instructions":null,"pickup_menu_url":null,"postal_code":"02115","ready_time_estimate_in_minutes":null,"region":"MA","street_address":"754 Huntington Ave","twitter_url":null,"updated_at":"2017-07-12T16:04:48-04:00","yelp_url":"http://www.yelp.com/biz/the-green-t-coffee-shop-boston","shown":true}},{"location":{"accepts_tips_in_store":true,"accepts_tips_on_delivery":false,"accepts_tips_on_pickup":true,"categories":[32,33,35,38,51,52,53],"category_names":["Breakfast","Brunch","Cafe","Quick Bite","Sandwiches","Sweets/Dessert","Vegan/Vegetarian Friendly"],"delivery_menu_url":null,"extended_address":"","facebook_url":"https://www.facebook.com/pages/Flour-BakeryCafe/160143804024972","foodler_url":null,"fulfillment_types":["in_store","pickup"],"hours":"M-F 6:30a-8p \r\nSat  8a-6p \r\nSun 8a-5p","id":7614,"image_url":"https://s3.amazonaws.com/levelup-production/merchants/5687/images/320x212_2x/Flour_Logo_Color_Hi-Res.png?1507063889","latitude":42.338475,"locality":"Boston","longitude":-71.074564,"menu_url":null,"merchant_id":5687,"merchant_description_html":"","merchant_description":null,"merchant_name":"Flour","merchant_tip_preference":"no preference","name":"South End - Washington St","nearby_location_count":7,"newsletter_url":null,"open_state":"open","open_state_display":"open","opentable_url":null,"phone":"(617) 267-4300","pickup_instructions":"No need to wait in line. Head to the usual pickup area, tell us you ordered/paid ahead and give us your name. Not sure where to go? Ask any of our friendly staff members where to pick up your order and we are happy to help.","pickup_menu_url":"https://api.thelevelup.com/v15/order_ahead/menus/657124","postal_code":"02118","ready_time_estimate_in_minutes":15,"region":"MA","street_address":"1595 Washington St.","twitter_url":null,"updated_at":"2018-02-07T11:06:30-05:00","yelp_url":"http://www.yelp.com/biz/flour-bakery-caf%C3%A9-boston-5","shown":true}},{"location":{"accepts_tips_in_store":true,"accepts_tips_on_delivery":false,"accepts_tips_on_pickup":false,"categories":[35,53],"category_names":["Cafe","Vegan/Vegetarian Friendly"],"delivery_menu_url":null,"extended_address":"","facebook_url":"https://www.facebook.com/KooKooCafe?rf=167188610011679","foodler_url":null,"fulfillment_types":["in_store"],"hours":"7am-6pm","id":9239,"image_url":"https://s3.amazonaws.com/levelup-production/merchants/6387/images/320x212_2x/coming_soon.png?1499891228","latitude":42.332594,"locality":"Brookline","longitude":-71.117917,"menu_url":null,"merchant_id":6387,"merchant_description_html":"","merchant_description":null,"merchant_name":"Kookoo Cafe","merchant_tip_preference":"no preference","name":"Kookoo Cafe ","nearby_location_count":1,"newsletter_url":null,"open_state":"open","open_state_display":"open","opentable_url":null,"phone":"(617) 730-5525","pickup_instructions":null,"pickup_menu_url":null,"postal_code":"02445","ready_time_estimate_in_minutes":null,"region":"MA","street_address":"7 Station St","twitter_url":null,"updated_at":"2017-07-12T16:27:13-04:00","yelp_url":"http://www.yelp.com/biz/kookoo-caf%C3%A9-brookline-2","shown":true}},{"location":{"accepts_tips_in_store":true,"accepts_tips_on_delivery":false,"accepts_tips_on_pickup":false,"categories":[32,38,51,53],"category_names":["Breakfast","Quick Bite","Sandwiches","Vegan/Vegetarian Friendly"],"delivery_menu_url":null,"extended_address":"","facebook_url":"https://www.facebook.com/cuttyfoods","foodler_url":null,"fulfillment_types":["in_store"],"hours":"","id":6888,"image_url":"https://s3.amazonaws.com/levelup-production/merchants/5455/images/320x212_2x/cutty.jpg?1499890948","latitude":42.333176,"locality":"Brookline","longitude":-71.119419,"menu_url":null,"merchant_id":5455,"merchant_description_html":"","merchant_description":null,"merchant_name":"Cutty's","merchant_tip_preference":"no preference","name":null,"nearby_location_count":1,"newsletter_url":null,"open_state":"open","open_state_display":"open","opentable_url":null,"phone":"(617) 505-1844","pickup_instructions":null,"pickup_menu_url":null,"postal_code":"02445","ready_time_estimate_in_minutes":null,"region":"MA","street_address":"284 Washington Street","twitter_url":"https://twitter.com/@cuttys","updated_at":"2017-11-28T15:00:19-05:00","yelp_url":"http://www.yelp.com/biz/cuttys-brookline","shown":true}},{"location":{"accepts_tips_in_store":true,"accepts_tips_on_delivery":false,"accepts_tips_on_pickup":false,"categories":[30,38,39],"category_names":["Asian","Quick Bite","Food Truck"],"delivery_menu_url":null,"extended_address":"","facebook_url":"http://www.facebook.com/meimeiboston","foodler_url":null,"fulfillment_types":["in_store"],"hours":"","id":11134,"image_url":"https://s3.amazonaws.com/levelup-production/merchants/1685/images/320x212_2x/meimeistreetkitchen.png?1499889986","latitude":42.344225,"locality":"Boston","longitude":-71.031084,"menu_url":null,"merchant_id":1685,"merchant_description_html":"","merchant_description":null,"merchant_name":"Mei Mei","merchant_tip_preference":"no preference","name":null,"nearby_location_count":2,"newsletter_url":null,"open_state":"open","open_state_display":"open","opentable_url":null,"phone":"","pickup_instructions":null,"pickup_menu_url":null,"postal_code":"02210","ready_time_estimate_in_minutes":null,"region":"MA","street_address":"21 Drydock Ave","twitter_url":"https://twitter.com/@meimeiboston","updated_at":"2018-02-02T13:10:25-05:00","yelp_url":"http://www.yelp.com/biz/mei-mei-street-kitchen-boston","shown":true}},{"location":{"accepts_tips_in_store":false,"accepts_tips_on_delivery":false,"accepts_tips_on_pickup":false,"categories":[346],"category_names":["Dessert"],"delivery_menu_url":null,"extended_address":"","facebook_url":"https://www.facebook.com/squeezeboston","foodler_url":null,"fulfillment_types":["in_store"],"hours":"","id":8262,"image_url":"https://s3.amazonaws.com/levelup-production/merchants/5961/images/320x212_2x/squeeze.jpg?1499891085","latitude":42.3197,"locality":"Chestnut Hill","longitude":-71.176399,"menu_url":null,"merchant_id":5961,"merchant_description_html":"","merchant_description":null,"merchant_name":"Squeeze","merchant_tip_preference":"unwanted","name":null,"nearby_location_count":1,"newsletter_url":null,"open_state":"open","open_state_display":"open","opentable_url":null,"phone":"(617) 244-3042","pickup_instructions":null,"pickup_menu_url":null,"postal_code":"02467","ready_time_estimate_in_minutes":null,"region":"MA","street_address":"200 Boylston St","twitter_url":"https://twitter.com/@squeezeboston","updated_at":"2017-07-12T16:24:50-04:00","yelp_url":"http://www.yelp.com/biz/squeeze-cafe-and-juice-bar-boston","shown":true}},{"location":{"accepts_tips_in_store":true,"accepts_tips_on_delivery":false,"accepts_tips_on_pickup":false,"categories":[35],"category_names":["Cafe"],"delivery_menu_url":null,"extended_address":"","facebook_url":"https://www.facebook.com/pages/Citra-a-fresh-cafe/189158417859080","foodler_url":null,"fulfillment_types":["in_store"],"hours":"","id":7802,"image_url":"https://s3.amazonaws.com/levelup-production/merchants/5850/images/320x212_2x/citra.jpg?1499891050","latitude":42.337117,"locality":"Boston","longitude":-71.102269,"menu_url":null,"merchant_id":5850,"merchant_description_html":"","merchant_description":null,"merchant_name":"Citra Fresh Cafe","merchant_tip_preference":"no preference","name":null,"nearby_location_count":1,"newsletter_url":null,"open_state":"open","open_state_display":"open","opentable_url":null,"phone":"(617) 232-2005","pickup_instructions":null,"pickup_menu_url":null,"postal_code":"02115","ready_time_estimate_in_minutes":null,"region":"MA","street_address":"221 Longwood Ave","twitter_url":"https://twitter.com/@eatcitra","updated_at":"2017-07-12T16:24:13-04:00","yelp_url":"http://www.yelp.com/biz/citra-a-fresh-cafe-brookline","shown":true}},{"location":{"accepts_tips_in_store":true,"accepts_tips_on_delivery":false,"accepts_tips_on_pickup":false,"categories":[36],"category_names":["Convenience"],"delivery_menu_url":null,"extended_address":"","facebook_url":null,"foodler_url":null,"fulfillment_types":["in_store"],"hours":"8:00am - 8:00pm","id":11050,"image_url":"https://s3.amazonaws.com/levelup-production/merchants/6797/images/320x212_2x/coming_soon.png?1499891348","latitude":42.341005,"locality":"Boston","longitude":-71.076684,"menu_url":null,"merchant_id":6797,"merchant_description_html":"","merchant_description":null,"merchant_name":"Tremont Market \u0026 Deli","merchant_tip_preference":"expected","name":null,"nearby_location_count":1,"newsletter_url":null,"open_state":"open","open_state_display":"open","opentable_url":null,"phone":"(617) 266-0009","pickup_instructions":null,"pickup_menu_url":null,"postal_code":"02118","ready_time_estimate_in_minutes":null,"region":"MA","street_address":"682 Tremont Street","twitter_url":null,"updated_at":"2017-07-12T16:29:12-04:00","yelp_url":null,"shown":true}},{"location":{"accepts_tips_in_store":true,"accepts_tips_on_delivery":false,"accepts_tips_on_pickup":false,"categories":[38,44,51],"category_names":["Quick Bite","Mediterranean","Sandwiches"],"delivery_menu_url":null,"extended_address":"","facebook_url":null,"foodler_url":null,"fulfillment_types":["in_store"],"hours":"","id":8608,"image_url":"https://s3.amazonaws.com/levelup-production/merchants/6091/images/320x212_2x/sami.png?1499891136","latitude":42.337349,"locality":"Boston","longitude":-71.103359,"menu_url":null,"merchant_id":6091,"merchant_description_html":"","merchant_description":null,"merchant_name":"Sami's","merchant_tip_preference":"no preference","name":"Sami's","nearby_location_count":1,"newsletter_url":null,"open_state":"open","open_state_display":"open","opentable_url":null,"phone":"(617) 432-0402","pickup_instructions":null,"pickup_menu_url":null,"postal_code":"02115","ready_time_estimate_in_minutes":null,"region":"MA","street_address":"107 Avenue Louis Pasteur","twitter_url":"https://twitter.com/samisatjp","updated_at":"2017-07-12T16:25:41-04:00","yelp_url":"http://www.yelp.com/biz/samis-boston-3","shown":true}},{"location":{"accepts_tips_in_store":true,"accepts_tips_on_delivery":false,"accepts_tips_on_pickup":false,"categories":[28,31,32,33,34,35,36,50,51,52,53,93],"category_names":["American","Bar","Breakfast","Brunch","Burgers","Cafe","Convenience","Sit-Down Restaurant","Sandwiches","Sweets/Dessert","Vegan/Vegetarian Friendly","Coffee Shop"],"delivery_menu_url":null,"extended_address":"","facebook_url":"https://www.facebook.com/southendbuttery","foodler_url":null,"fulfillment_types":["in_store"],"hours":"Mon\t 6:30 am - 10:00 pm\t\r\nTue\t 6:30 am - 10:00 pm\t\r\nWed\t 6:30 am - 10:00 pm\t\r\nThu\t 6:30 am - 10:00 pm\t\r\nFri\t 6:30 am - 11:00 pm\t\r\nSat\t 6:30 am - 11:00 pm\t\r\nSun\t 6:30 am - 10:00 pm","id":10066,"image_url":"https://s3.amazonaws.com/levelup-production/merchants/6012/images/320x212_2x/Buttery_Logo_Black.png?1499891104","latitude":42.34212,"locality":"Boston","longitude":-71.070387,"menu_url":null,"merchant_id":6012,"merchant_description_html":"","merchant_description":null,"merchant_name":"South End Buttery","merchant_tip_preference":"no preference","name":null,"nearby_location_count":2,"newsletter_url":null,"open_state":"open","open_state_display":"open","opentable_url":"http://www.opentable.com/south-end-buttery","phone":"(617) 482-1015","pickup_instructions":null,"pickup_menu_url":null,"postal_code":"02118","ready_time_estimate_in_minutes":null,"region":"MA","street_address":"314 Shawmut Ave","twitter_url":"https://twitter.com/southendbuttery","updated_at":"2017-07-12T16:25:10-04:00","yelp_url":"http://www.yelp.com/biz/south-end-buttery-boston","shown":true}},{"location":{"accepts_tips_in_store":false,"accepts_tips_on_delivery":false,"accepts_tips_on_pickup":false,"categories":[368],"category_names":["Juice"],"delivery_menu_url":null,"extended_address":"","facebook_url":"https://www.facebook.com/juicepress/","foodler_url":null,"fulfillment_types":["in_store"],"hours":"Mon - Fri: 7:00 am - 8:00 pm\r\nSat - Sun: 9:00 am - 7:00 pm","id":11361,"image_url":"https://s3.amazonaws.com/levelup-production/merchants/4697/images/320x212_2x/level-up-6-bottles.jpg?1499890753","latitude":42.322786,"locality":"Newton","longitude":-71.168719,"menu_url":null,"merchant_id":4697,"merchant_description_html":"","merchant_description":"Juice","merchant_name":"Juice Press","merchant_tip_preference":"unwanted","name":"NEWTON - 33 BOYLSTON ST","nearby_location_count":5,"newsletter_url":null,"open_state":"open","open_state_display":"open","opentable_url":null,"phone":"(212) 777-0034","pickup_instructions":null,"pickup_menu_url":null,"postal_code":"02467","ready_time_estimate_in_minutes":null,"region":"MA","street_address":"33 Boylston St.","twitter_url":"https://twitter.com/juicepresstweet","updated_at":"2018-01-10T12:43:16-05:00","yelp_url":null,"shown":true}},{"location":{"accepts_tips_in_store":false,"accepts_tips_on_delivery":false,"accepts_tips_on_pickup":false,"categories":[411],"category_names":["Retail: Other"],"delivery_menu_url":null,"extended_address":"","facebook_url":"https://www.facebook.com/pages/Luke-Adams-Gifting-Co/1419310981622189","foodler_url":null,"fulfillment_types":["in_store"],"hours":"","id":8035,"image_url":"https://s3.amazonaws.com/levelup-production/merchants/5904/images/320x212_2x/luke.jpeg?1499891068","latitude":42.340964,"locality":"Boston","longitude":-71.081369,"menu_url":null,"merchant_id":5904,"merchant_description_html":"","merchant_description":"Retail: Other","merchant_name":"Luke Adams Gifting Co.","merchant_tip_preference":"unwanted","name":"Gift Shop ","nearby_location_count":1,"newsletter_url":null,"open_state":"open","open_state_display":"open","opentable_url":null,"phone":"","pickup_instructions":null,"pickup_menu_url":null,"postal_code":"02118","ready_time_estimate_in_minutes":null,"region":"MA","street_address":"565 Columbus Ave","twitter_url":null,"updated_at":"2017-12-04T10:36:38-05:00","yelp_url":"http://www.yelp.com/biz/luke-adams-gifting-co-boston","shown":true}},{"location":{"accepts_tips_in_store":false,"accepts_tips_on_delivery":false,"accepts_tips_on_pickup":false,"categories":[30,32,44,45,53,58],"category_names":["Asian","Breakfast","Mediterranean","Mexican","Vegan/Vegetarian Friendly","Indian"],"delivery_menu_url":null,"extended_address":"","facebook_url":"http://www.facebook.com/Boloco","foodler_url":null,"fulfillment_types":["in_store"],"hours":"Monday - Friday: 7am - 9pm\r\nSaturday - Sunday: 8am - 7pm","id":2348,"image_url":"https://s3.amazonaws.com/levelup-production/merchants/1992/images/320x212_2x/07_MangoSalsa.jpg?1499890089","latitude":42.337654,"locality":"Boston","longitude":-71.104493,"menu_url":"http://b.olo.co/menu","merchant_id":1992,"merchant_description_html":"","merchant_description":null,"merchant_name":"Boloco","merchant_tip_preference":"unwanted","name":"boloco - Children's","nearby_location_count":8,"newsletter_url":null,"open_state":"open","open_state_display":"open","opentable_url":null,"phone":"(617) 232-2166","pickup_instructions":null,"pickup_menu_url":null,"postal_code":"02115","ready_time_estimate_in_minutes":null,"region":"MA","street_address":"283 Longwood Avenue","twitter_url":"https://twitter.com/@boloco","updated_at":"2018-02-02T11:00:35-05:00","yelp_url":null,"shown":true}},{"location":{"accepts_tips_in_store":false,"accepts_tips_on_delivery":false,"accepts_tips_on_pickup":false,"categories":[51,57],"category_names":["Sandwiches","Grocery"],"delivery_menu_url":null,"extended_address":"","facebook_url":"https://www.facebook.com/southendformaggio","foodler_url":null,"fulfillment_types":["in_store"],"hours":"","id":8655,"image_url":"https://s3.amazonaws.com/levelup-production/merchants/6111/images/320x212_2x/formaggio.jpg?1499891143","latitude":42.343116,"locality":"Boston","longitude":-71.068627,"menu_url":null,"merchant_id":6111,"merchant_description_html":"","merchant_description":null,"merchant_name":"Formaggio Kitchen South End","merchant_tip_preference":"unwanted","name":"Formaggio Kitchen South End","nearby_location_count":1,"newsletter_url":null,"open_state":"open","open_state_display":"open","opentable_url":null,"phone":"(617) 350-6996","pickup_instructions":null,"pickup_menu_url":null,"postal_code":"02118","ready_time_estimate_in_minutes":null,"region":"MA","street_address":"268 Shawmut Ave","twitter_url":"https://twitter.com/FormaggioSE","updated_at":"2017-07-12T16:25:50-04:00","yelp_url":"http://www.yelp.com/biz/south-end-formaggio-boston","shown":true}},{"location":{"accepts_tips_in_store":true,"accepts_tips_on_delivery":false,"accepts_tips_on_pickup":false,"categories":[45],"category_names":["Mexican"],"delivery_menu_url":null,"extended_address":"","facebook_url":"https://www.facebook.com/pages/El-Triunfo-Mexican-Grill/155931044484118","foodler_url":null,"fulfillment_types":["in_store"],"hours":"","id":9051,"image_url":"https://s3.amazonaws.com/levelup-production/merchants/6338/images/320x212_2x/el_triunfo.jpg?1499891218","latitude":42.343593,"locality":"Boston","longitude":-71.064748,"menu_url":null,"merchant_id":6338,"merchant_description_html":"","merchant_description":null,"merchant_name":"El Triunfo","merchant_tip_preference":"no preference","name":"El Triunfo - South End","nearby_location_count":1,"newsletter_url":null,"open_state":"open","open_state_display":"open","opentable_url":null,"phone":"(617) 542-8499","pickup_instructions":null,"pickup_menu_url":null,"postal_code":"02118","ready_time_estimate_in_minutes":null,"region":"MA","street_address":"147 E Berkeley St","twitter_url":null,"updated_at":"2017-07-12T16:27:02-04:00","yelp_url":"http://www.yelp.com/biz/el-triunfo-boston","shown":true}},{"location":{"accepts_tips_in_store":true,"accepts_tips_on_delivery":false,"accepts_tips_on_pickup":false,"categories":[28,34],"category_names":["American","Burgers"],"delivery_menu_url":null,"extended_address":"","facebook_url":"https://www.facebook.com/caffebeneTimesSquare","foodler_url":null,"fulfillment_types":["in_store"],"hours":"","id":9139,"image_url":"https://s3.amazonaws.com/levelup-production/merchants/6357/images/320x212_2x/yeah.JPG?1499891218","latitude":42.342262,"locality":"Boston","longitude":-71.084674,"menu_url":null,"merchant_id":6357,"merchant_description_html":"","merchant_description":null,"merchant_name":"Caffe Bene","merchant_tip_preference":"no preference","name":null,"nearby_location_count":1,"newsletter_url":null,"open_state":"open","open_state_display":"open","opentable_url":null,"phone":"(718) 808-2660","pickup_instructions":null,"pickup_menu_url":null,"postal_code":"02115","ready_time_estimate_in_minutes":null,"region":"MA","street_address":"333 Massachusetts Ave","twitter_url":"https://twitter.com/caffebeneusa","updated_at":"2017-07-12T16:27:03-04:00","yelp_url":"http://www.yelp.com/biz/caffebene-boston","shown":true}},{"location":{"accepts_tips_in_store":false,"accepts_tips_on_delivery":false,"accepts_tips_on_pickup":false,"categories":[93],"category_names":["Coffee Shop"],"delivery_menu_url":null,"extended_address":"","facebook_url":null,"foodler_url":null,"fulfillment_types":["in_store"],"hours":"Sunday\t\t\t\t08:00 AM - 08:00 PM\nMonday\t\t\t\t08:00 AM - 08:00 PM\nTuesday\t\t\t\t08:00 AM - 08:00 PM\nWednesday\t\t\t06:30 AM - 09:00 PM\nThursday\t\t\t06:30 AM - 09:00 PM\nFriday\t\t\t\t06:30 AM - 09:00 PM\nSaturday\t\t\t08:00 AM - 08:00 PM","id":217265,"image_url":"https://s3.amazonaws.com/levelup-production/merchants/13878/images/320x212_2x/merchant-image.jpg?1499894574","latitude":42.339016,"locality":"Boston","longitude":-71.108025,"menu_url":null,"merchant_id":13878,"merchant_description_html":"","merchant_description":null,"merchant_name":"Pret A Manger","merchant_tip_preference":"unwanted","name":"Longwood Avenue","nearby_location_count":6,"newsletter_url":null,"open_state":"open","open_state_display":"open","opentable_url":null,"phone":"(617) 278-6070","pickup_instructions":null,"pickup_menu_url":null,"postal_code":"02215","ready_time_estimate_in_minutes":null,"region":"MA","street_address":"360 Longwood Avenue","twitter_url":null,"updated_at":"2018-02-01T12:52:38-05:00","yelp_url":null,"shown":true}},{"location":{"accepts_tips_in_store":true,"accepts_tips_on_delivery":false,"accepts_tips_on_pickup":false,"categories":[36,51,57],"category_names":["Convenience","Sandwiches","Grocery"],"delivery_menu_url":null,"extended_address":"","facebook_url":"https://www.facebook.com/pages/Giorgianas/122345597815097","foodler_url":null,"fulfillment_types":["in_store"],"hours":"","id":8234,"image_url":"https://s3.amazonaws.com/levelup-production/merchants/5957/images/320x212_2x/3372.jpg?1499891085","latitude":42.34453,"locality":"Boston","longitude":-71.070292,"menu_url":null,"merchant_id":5957,"merchant_description_html":"","merchant_description":null,"merchant_name":"Giorgiana's","merchant_tip_preference":"no preference","name":"Giorgiana's","nearby_location_count":1,"newsletter_url":null,"open_state":"open","open_state_display":"open","opentable_url":null,"phone":"(617) 542-0101","pickup_instructions":null,"pickup_menu_url":null,"postal_code":"02116","ready_time_estimate_in_minutes":null,"region":"MA","street_address":"532 Tremont St","twitter_url":null,"updated_at":"2017-07-12T16:24:51-04:00","yelp_url":"http://www.yelp.com/biz/giorgianas-boston","shown":true}},{"location":{"accepts_tips_in_store":true,"accepts_tips_on_delivery":false,"accepts_tips_on_pickup":false,"categories":[28,50],"category_names":["American","Sit-Down Restaurant"],"delivery_menu_url":null,"extended_address":"","facebook_url":"https://www.facebook.com/pages/Larry-Js-BBQ-Cafe/160206207349467","foodler_url":null,"fulfillment_types":["in_store"],"hours":"","id":8636,"image_url":"https://s3.amazonaws.com/levelup-production/merchants/6103/images/320x212_2x/larrys.jpg?1499891141","latitude":42.348677,"locality":"Boston","longitude":-71.039677,"menu_url":null,"merchant_id":6103,"merchant_description_html":"","merchant_description":null,"merchant_name":"Larry J's BBQ Cafe","merchant_tip_preference":"no preference","name":"Larry J's","nearby_location_count":1,"newsletter_url":null,"open_state":"open","open_state_display":"open","opentable_url":null,"phone":"(617) 348-9800","pickup_instructions":null,"pickup_menu_url":null,"postal_code":"02210","ready_time_estimate_in_minutes":null,"region":"MA","street_address":"600 D St","twitter_url":null,"updated_at":"2018-02-06T14:31:03-05:00","yelp_url":"http://www.yelp.com/biz/larry-js-bbq-cafe-boston","shown":true}},{"location":{"accepts_tips_in_store":true,"accepts_tips_on_delivery":false,"accepts_tips_on_pickup":false,"categories":[32,33,36,37,38,53,93],"category_names":["Breakfast","Brunch","Convenience","Early Bird","Quick Bite","Vegan/Vegetarian Friendly","Coffee Shop"],"delivery_menu_url":null,"extended_address":"","facebook_url":"https://www.facebook.com/revolutionjuice","foodler_url":null,"fulfillment_types":["in_store"],"hours":"Sunday:  8AM-4PM\r\nM-F: 7AM-7PM\r\nSaturday 7AM-5PM\r\n","id":9944,"image_url":"https://s3.amazonaws.com/levelup-production/merchants/6487/images/320x212_2x/revolution_juice.png?1499891262","latitude":42.34467,"locality":"Boston","longitude":-71.082201,"menu_url":null,"merchant_id":6487,"merchant_description_html":"","merchant_description":null,"merchant_name":"Revolution Juice","merchant_tip_preference":"no preference","name":"Revolution Juice","nearby_location_count":1,"newsletter_url":null,"open_state":"open","open_state_display":"open","opentable_url":null,"phone":"(857) 523-9909","pickup_instructions":null,"pickup_menu_url":null,"postal_code":"02115","ready_time_estimate_in_minutes":null,"region":"MA","street_address":"150 Huntington Avenue","twitter_url":"https://twitter.com/revjuice","updated_at":"2017-07-12T16:27:57-04:00","yelp_url":null,"shown":true}},{"location":{"accepts_tips_in_store":true,"accepts_tips_on_delivery":false,"accepts_tips_on_pickup":false,"categories":[32,38,43,44,48,51],"category_names":["Breakfast","Quick Bite","Late Night","Mediterranean","Pizza","Sandwiches"],"delivery_menu_url":null,"extended_address":"","facebook_url":"http://www.foodler.com/cappys-pizza/4125","foodler_url":"http://www.foodler.com/cappys-pizza/4125","fulfillment_types":["in_store"],"hours":null,"id":4596,"image_url":"https://s3.amazonaws.com/levelup-production/merchants/3910/images/320x212_2x/Screen_Shot_2013-01-22_at_1.09.45_PM.png?1499890568","latitude":42.343789,"locality":"Boston","longitude":-71.089579,"menu_url":null,"merchant_id":3910,"merchant_description_html":"","merchant_description":null,"merchant_name":"Cappy's Pizza","merchant_tip_preference":"no preference","name":null,"nearby_location_count":1,"newsletter_url":null,"open_state":"open","open_state_display":"open","opentable_url":null,"phone":"(617) 247-8801","pickup_instructions":null,"pickup_menu_url":null,"postal_code":"02115","ready_time_estimate_in_minutes":null,"region":"MA","street_address":"82 Westland Ave","twitter_url":"https://twitter.com/@cappyspizza","updated_at":"2017-07-12T16:16:14-04:00","yelp_url":"http://www.yelp.com/biz/cappys-pizza-and-subs-boston","shown":true}},{"location":{"accepts_tips_in_store":true,"accepts_tips_on_delivery":false,"accepts_tips_on_pickup":false,"categories":[35,38,42,51],"category_names":["Cafe","Quick Bite","Italian","Sandwiches"],"delivery_menu_url":null,"extended_address":"","facebook_url":"https://www.facebook.com/pages/BLACKJACK-PASTA/240893655996","foodler_url":"http://www.foodler.com/black-jack-pasta/3474","fulfillment_types":["in_store"],"hours":"","id":2641,"image_url":"https://s3.amazonaws.com/levelup-production/merchants/2220/images/320x212_2x/blackjackpasta.jpg?1499890147","latitude":42.342645,"locality":"Boston","longitude":-71.097331,"menu_url":null,"merchant_id":2220,"merchant_description_html":"","merchant_description":null,"merchant_name":"Black Jack Pasta","merchant_tip_preference":"no preference","name":null,"nearby_location_count":1,"newsletter_url":null,"open_state":"open","open_state_display":"open","opentable_url":null,"phone":"(617) 266-1313","pickup_instructions":null,"pickup_menu_url":null,"postal_code":"02115","ready_time_estimate_in_minutes":null,"region":"MA","street_address":"52 Queensbury St","twitter_url":null,"updated_at":"2017-07-12T16:09:15-04:00","yelp_url":"http://www.yelp.com/biz/blackjack-pasta-bar-boston-2","shown":true}},{"location":{"accepts_tips_in_store":true,"accepts_tips_on_delivery":false,"accepts_tips_on_pickup":false,"categories":[28,32,35,38,51],"category_names":["American","Breakfast","Cafe","Quick Bite","Sandwiches"],"delivery_menu_url":null,"extended_address":"","facebook_url":null,"foodler_url":null,"fulfillment_types":["in_store"],"hours":"","id":3247,"image_url":"https://s3.amazonaws.com/levelup-production/merchants/2799/images/320x212_2x/AEW_Capital_Management_Level_Up.jpeg?1499890307","latitude":42.348934,"locality":"Boston","longitude":-71.040773,"menu_url":null,"merchant_id":2799,"merchant_description_html":"","merchant_description":null,"merchant_name":"AEW Capital Management","merchant_tip_preference":"no preference","name":null,"nearby_location_count":1,"newsletter_url":null,"open_state":"open","open_state_display":"open","opentable_url":null,"phone":"(617) 261-9000","pickup_instructions":null,"pickup_menu_url":null,"postal_code":"02210","ready_time_estimate_in_minutes":null,"region":"MA","street_address":"2 Seaport Lane (Cafe)","twitter_url":null,"updated_at":"2017-07-12T16:11:50-04:00","yelp_url":null,"shown":true}},{"location":{"accepts_tips_in_store":false,"accepts_tips_on_delivery":false,"accepts_tips_on_pickup":false,"categories":[35,38,43,45,51,53,60],"category_names":["Cafe","Quick Bite","Late Night","Mexican","Sandwiches","Vegan/Vegetarian Friendly","Latin"],"delivery_menu_url":null,"extended_address":"","facebook_url":"https://www.facebook.com/elpelontaqueria","foodler_url":"http://www.foodler.com/el-pelon/12623","fulfillment_types":["in_store"],"hours":"11am to 11pm Every Day","id":9860,"image_url":"https://s3.amazonaws.com/levelup-production/merchants/6096/images/320x212_2x/Fenway_Store_Front.jpeg?1499891138","latitude":42.343061,"locality":"Boston","longitude":-71.099059,"menu_url":"http://www.elpelon.com/wp-content/uploads/2012/06/El-Pel%C3%B3n-Takeout-Menu-08312014.pdf","merchant_id":6096,"merchant_description_html":"","merchant_description":"Open 11am to 11pm Everyday","merchant_name":"El Pelón Taqueria","merchant_tip_preference":"unwanted","name":"El Pelón Taqueria Fenway","nearby_location_count":2,"newsletter_url":"http://us2.campaign-archive1.com/?u=e9fd43491b2a76daee713a43c\u0026id=914106ec8a\u0026e=[UNIQID]","open_state":"open","open_state_display":"open","opentable_url":"http://www.yelp.com/biz/el-pel%C3%B3n-taquer%C3%ADa-boston-3","phone":"(617) 262-9090","pickup_instructions":null,"pickup_menu_url":null,"postal_code":"02215","ready_time_estimate_in_minutes":null,"region":"MA","street_address":"92 Peterborough St","twitter_url":"https://twitter.com/ElPelonTaqueria","updated_at":"2018-02-01T13:43:04-05:00","yelp_url":"http://www.yelp.com/biz/el-pelon-taqueria-brighton","shown":true}},{"location":{"accepts_tips_in_store":false,"accepts_tips_on_delivery":false,"accepts_tips_on_pickup":false,"categories":[35,44,50,53],"category_names":["Cafe","Mediterranean","Sit-Down Restaurant","Vegan/Vegetarian Friendly"],"delivery_menu_url":null,"extended_address":"","facebook_url":"https://www.facebook.com/southendpita","foodler_url":null,"fulfillment_types":["in_store"],"hours":"","id":1844,"image_url":"https://s3.amazonaws.com/levelup-production/merchants/1643/images/320x212_2x/iStock_000011620331XSmall.jpg?1499889975","latitude":42.345208,"locality":"Boston","longitude":-71.087075,"menu_url":null,"merchant_id":1643,"merchant_description_html":"","merchant_description":null,"merchant_name":"Pita Restaurants","merchant_tip_preference":"unwanted","name":"Pita Mass Ave","nearby_location_count":1,"newsletter_url":null,"open_state":"open","open_state_display":"open","opentable_url":null,"phone":"(617) 556-2600","pickup_instructions":null,"pickup_menu_url":null,"postal_code":"02115","ready_time_estimate_in_minutes":null,"region":"MA","street_address":"197A Massachusetts Ave","twitter_url":"https://twitter.com/@southendpita","updated_at":"2017-07-12T16:06:25-04:00","yelp_url":"http://www.yelp.com/biz/pita-mediterranean-cuisine-boston","shown":true}},{"location":{"accepts_tips_in_store":false,"accepts_tips_on_delivery":false,"accepts_tips_on_pickup":false,"categories":[44],"category_names":["Mediterranean"],"delivery_menu_url":null,"extended_address":"","facebook_url":"https://www.facebook.com/cavagrill","foodler_url":null,"fulfillment_types":["in_store"],"hours":"Daily, 10:45am - 10pm EST","id":297432,"image_url":"https://s3.amazonaws.com/levelup-production/merchants/5472/images/320x212_2x/CAVAisAwesome.jpg?1499890951","latitude":42.343807,"locality":"Boston","longitude":-71.099517,"menu_url":"http://menu.cavagrill.com","merchant_id":5472,"merchant_description_html":"","merchant_description":null,"merchant_name":"CAVA","merchant_tip_preference":"unwanted","name":"Fenway","nearby_location_count":1,"newsletter_url":null,"open_state":"open","open_state_display":"open","opentable_url":null,"phone":"","pickup_instructions":null,"pickup_menu_url":null,"postal_code":"02115","ready_time_estimate_in_minutes":null,"region":"MA","street_address":"1350 Boylston Street","twitter_url":"https://twitter.com/cava","updated_at":"2018-02-05T10:57:15-05:00","yelp_url":null,"shown":true}},{"location":{"accepts_tips_in_store":false,"accepts_tips_on_delivery":false,"accepts_tips_on_pickup":true,"categories":[33,44,355],"category_names":["Brunch","Mediterranean","Greek"],"delivery_menu_url":null,"extended_address":"","facebook_url":null,"foodler_url":null,"fulfillment_types":["in_store","pickup"],"hours":"11am - 10pm/7 days","id":14499,"image_url":"https://s3.amazonaws.com/levelup-production/merchants/6689/images/320x212_2x/image1.JPG?1499891323","latitude":42.344132,"locality":"Boston","longitude":-71.100079,"menu_url":null,"merchant_id":6689,"merchant_description_html":"","merchant_description":"Big Greek flavor.","merchant_name":"Saloniki","merchant_tip_preference":"unwanted","name":"Saloniki Fenway","nearby_location_count":2,"newsletter_url":null,"open_state":"open","open_state_display":"open","opentable_url":null,"phone":"(617) 266-0001","pickup_instructions":null,"pickup_menu_url":"https://api.thelevelup.com/v15/order_ahead/menus/641299","postal_code":"02216","ready_time_estimate_in_minutes":30,"region":"MA","street_address":"4 Kilmarnock Street","twitter_url":null,"updated_at":"2018-02-06T02:08:47-05:00","yelp_url":null,"shown":true}},{"location":{"accepts_tips_in_store":true,"accepts_tips_on_delivery":false,"accepts_tips_on_pickup":false,"categories":[30,38,51],"category_names":["Asian","Quick Bite","Sandwiches"],"delivery_menu_url":null,"extended_address":"FL 2 Unit Food Court B1","facebook_url":"https://www.facebook.com/pages/Num-Pang-Sandwich-Shop/144185338962497","foodler_url":null,"fulfillment_types":["in_store"],"hours":"","id":147586,"image_url":"https://s3.amazonaws.com/levelup-production/merchants/5443/images/320x212_2x/num_pang.png?1508879937","latitude":42.346516,"locality":"Boston","longitude":-71.08385,"menu_url":"https://www.numpangkitchen.com/menus-new-york/","merchant_id":5443,"merchant_description_html":"","merchant_description":null,"merchant_name":"Num Pang Sandwich Shop","merchant_tip_preference":"no preference","name":"Num Pang - Boston","nearby_location_count":1,"newsletter_url":null,"open_state":"open","open_state_display":"open","opentable_url":null,"phone":"(646) 370-6003","pickup_instructions":null,"pickup_menu_url":null,"postal_code":"02199-1900","ready_time_estimate_in_minutes":null,"region":"MA","street_address":"800 Bolyston St","twitter_url":"https://twitter.com/@NumPang","updated_at":"2018-02-01T12:52:23-05:00","yelp_url":null,"shown":true}},{"location":{"accepts_tips_in_store":true,"accepts_tips_on_delivery":false,"accepts_tips_on_pickup":false,"categories":[28,31,48],"category_names":["American","Bar","Pizza"],"delivery_menu_url":null,"extended_address":"","facebook_url":"https://www.facebook.com/pastoralboston?ref=hl","foodler_url":null,"fulfillment_types":["in_store"],"hours":"","id":7376,"image_url":"https://s3.amazonaws.com/levelup-production/merchants/5714/images/320x212_2x/Pastoral_FortPoint_copy.png?1499891006","latitude":42.350572,"locality":"Boston","longitude":-71.048798,"menu_url":null,"merchant_id":5714,"merchant_description_html":"","merchant_description":null,"merchant_name":"Pastoral - Boston","merchant_tip_preference":"no preference","name":null,"nearby_location_count":1,"newsletter_url":null,"open_state":"open","open_state_display":"open","opentable_url":null,"phone":"","pickup_instructions":null,"pickup_menu_url":null,"postal_code":"02210","ready_time_estimate_in_minutes":null,"region":"MA","street_address":"345 Congress St","twitter_url":"https://twitter.com/@pastoralboston","updated_at":"2017-07-12T16:23:37-04:00","yelp_url":"http://www.yelp.com/biz/pastoral-boston","shown":true}},{"location":{"accepts_tips_in_store":true,"accepts_tips_on_delivery":false,"accepts_tips_on_pickup":false,"categories":[53],"category_names":["Vegan/Vegetarian Friendly"],"delivery_menu_url":null,"extended_address":"","facebook_url":"https://www.facebook.com/bychefchloe?_rdr","foodler_url":null,"fulfillment_types":["in_store"],"hours":"M-F 11AM-9PM\r\nSat 10AM-11PM\r\nSun 10AM-10PM","id":130082,"image_url":"https://s3.amazonaws.com/levelup-production/merchants/6613/images/320x212_2x/Food_960x636.jpg?1499891299","latitude":42.344888,"locality":"Boston","longitude":-71.100207,"menu_url":null,"merchant_id":6613,"merchant_description_html":"","merchant_description":null,"merchant_name":"by CHLOE.","merchant_tip_preference":"no preference","name":"by CHLOE. (Fenway)","nearby_location_count":2,"newsletter_url":null,"open_state":"open","open_state_display":"open","opentable_url":null,"phone":"","pickup_instructions":null,"pickup_menu_url":null,"postal_code":"02215","ready_time_estimate_in_minutes":null,"region":"MA","street_address":"100 Van Ness Street","twitter_url":"https://twitter.com/bychefchloe","updated_at":"2017-12-27T21:55:10-05:00","yelp_url":null,"shown":true}},{"location":{"accepts_tips_in_store":true,"accepts_tips_on_delivery":false,"accepts_tips_on_pickup":false,"categories":[43,50],"category_names":["Late Night","Sit-Down Restaurant"],"delivery_menu_url":null,"extended_address":"","facebook_url":null,"foodler_url":"http://www.foodler.com/teriyaki-house/11896","fulfillment_types":["in_store"],"hours":"","id":6295,"image_url":"https://s3.amazonaws.com/levelup-production/merchants/5077/images/320x212_2x/Screen_Shot_2013-11-19_at_3.10.18_PM.png?1499890857","latitude":42.346871,"locality":"Boston","longitude":-71.088684,"menu_url":null,"merchant_id":5077,"merchant_description_html":"","merchant_description":null,"merchant_name":"Teriyaki House","merchant_tip_preference":"no preference","name":null,"nearby_location_count":1,"newsletter_url":null,"open_state":"open","open_state_display":"open","opentable_url":null,"phone":"(617) 236-1008","pickup_instructions":null,"pickup_menu_url":null,"postal_code":"02215","ready_time_estimate_in_minutes":null,"region":"MA","street_address":"1110 Boylston St","twitter_url":null,"updated_at":"2017-07-12T16:21:02-04:00","yelp_url":"http://www.yelp.com/biz/teriyaki-house-boston-2","shown":true}},{"location":{"accepts_tips_in_store":true,"accepts_tips_on_delivery":false,"accepts_tips_on_pickup":false,"categories":[58],"category_names":["Indian"],"delivery_menu_url":null,"extended_address":"","facebook_url":"https://www.facebook.com/pages/Curry-House/194070323938868?ref=stream","foodler_url":"http://www.foodler.com/curry-house/4452","fulfillment_types":["in_store"],"hours":"","id":424,"image_url":"https://s3.amazonaws.com/levelup-production/merchants/396/images/320x212_2x/curryhouse.jpg?1499889615","latitude":42.341789,"locality":"Brookline","longitude":-71.121625,"menu_url":"http://www.curryhousebrookline.com/menus","merchant_id":396,"merchant_description_html":"","merchant_description":"Indian","merchant_name":"CURRY HOUSE","merchant_tip_preference":"no preference","name":null,"nearby_location_count":1,"newsletter_url":null,"open_state":"open","open_state_display":"open","opentable_url":null,"phone":"","pickup_instructions":null,"pickup_menu_url":null,"postal_code":"02446","ready_time_estimate_in_minutes":null,"region":"MA","street_address":"1335 Beacon St.","twitter_url":"https://twitter.com/@Curryhousema","updated_at":"2018-01-02T16:13:27-05:00","yelp_url":"http://www.yelp.com/biz/curry-house-brookline","shown":true}},{"location":{"accepts_tips_in_store":true,"accepts_tips_on_delivery":false,"accepts_tips_on_pickup":false,"categories":[36],"category_names":["Convenience"],"delivery_menu_url":null,"extended_address":"","facebook_url":"https://www.facebook.com/pages/Martins-News/265598536818643","foodler_url":null,"fulfillment_types":["in_store"],"hours":"","id":3572,"image_url":"https://s3.amazonaws.com/levelup-production/merchants/1444/images/320x212_2x/M2.jpg?1499889909","latitude":42.349395,"locality":"Boston","longitude":-71.074708,"menu_url":null,"merchant_id":1444,"merchant_description_html":"","merchant_description":null,"merchant_name":"Martin's News","merchant_tip_preference":"no preference","name":null,"nearby_location_count":8,"newsletter_url":null,"open_state":"open","open_state_display":"open","opentable_url":null,"phone":"","pickup_instructions":null,"pickup_menu_url":null,"postal_code":"02116","ready_time_estimate_in_minutes":null,"region":"MA","street_address":"200 Clarendon St","twitter_url":null,"updated_at":"2017-07-12T16:05:13-04:00","yelp_url":"http://www.yelp.com/biz/martins-news-shops-boston-2","shown":true}},{"location":{"accepts_tips_in_store":true,"accepts_tips_on_delivery":false,"accepts_tips_on_pickup":false,"categories":[35],"category_names":["Cafe"],"delivery_menu_url":null,"extended_address":"","facebook_url":null,"foodler_url":null,"fulfillment_types":["in_store"],"hours":"Sun-Th: 1030a-12a\r\nFri \u0026 Sat: 1030a-1a","id":7523,"image_url":"https://s3.amazonaws.com/levelup-production/merchants/5752/images/320x212_2x/teado.jpg?1499891019","latitude":42.351097,"locality":"Boston","longitude":-71.060505,"menu_url":null,"merchant_id":5752,"merchant_description_html":"","merchant_description":null,"merchant_name":"Tea Do Boston","merchant_tip_preference":"no preference","name":null,"nearby_location_count":1,"newsletter_url":null,"open_state":"open","open_state_display":"open","opentable_url":null,"phone":"(617) 988-8002","pickup_instructions":null,"pickup_menu_url":null,"postal_code":"02111","ready_time_estimate_in_minutes":null,"region":"MA","street_address":"8 Tyler St","twitter_url":null,"updated_at":"2017-07-12T16:23:48-04:00","yelp_url":null,"shown":true}},{"location":{"accepts_tips_in_store":true,"accepts_tips_on_delivery":false,"accepts_tips_on_pickup":false,"categories":[32,35,38,51,52],"category_names":["Breakfast","Cafe","Quick Bite","Sandwiches","Sweets/Dessert"],"delivery_menu_url":null,"extended_address":"","facebook_url":null,"foodler_url":null,"fulfillment_types":["in_store"],"hours":"","id":6918,"image_url":"https://s3.amazonaws.com/levelup-production/merchants/5485/images/320x212_2x/Screen_Shot_2013-10-17_at_3.11.14_PM.png?1499890954","latitude":42.352378,"locality":"Boston","longitude":-71.045281,"menu_url":null,"merchant_id":5485,"merchant_description_html":"","merchant_description":null,"merchant_name":"Brew","merchant_tip_preference":"no preference","name":null,"nearby_location_count":1,"newsletter_url":null,"open_state":"open","open_state_display":"open","opentable_url":null,"phone":"(617) 227-0754","pickup_instructions":null,"pickup_menu_url":null,"postal_code":"02210","ready_time_estimate_in_minutes":null,"region":"MA","street_address":"75 Northern Ave","twitter_url":null,"updated_at":"2017-07-12T16:22:40-04:00","yelp_url":null,"shown":true}},{"location":{"accepts_tips_in_store":true,"accepts_tips_on_delivery":false,"accepts_tips_on_pickup":false,"categories":[32,33,35,51],"category_names":["Breakfast","Brunch","Cafe","Sandwiches"],"delivery_menu_url":null,"extended_address":"","facebook_url":"https://www.facebook.com/tridentbookscafe","foodler_url":null,"fulfillment_types":["in_store"],"hours":"","id":8821,"image_url":"https://s3.amazonaws.com/levelup-production/merchants/6215/images/320x212_2x/trident.jpg?1499891178","latitude":42.348244,"locality":"Boston","longitude":-71.086623,"menu_url":null,"merchant_id":6215,"merchant_description_html":"","merchant_description":null,"merchant_name":"Trident Booksellers \u0026 Cafe","merchant_tip_preference":"no preference","name":"Trident","nearby_location_count":1,"newsletter_url":null,"open_state":"open","open_state_display":"open","opentable_url":null,"phone":"(617) 267-8688","pickup_instructions":null,"pickup_menu_url":null,"postal_code":"02115","ready_time_estimate_in_minutes":null,"region":"MA","street_address":"338 Newbury St","twitter_url":"https://twitter.com/TridentBooks","updated_at":"2017-07-12T16:26:26-04:00","yelp_url":"http://www.yelp.com/biz/trident-booksellers-and-caf%C3%A9-boston-2","shown":true}},{"location":{"accepts_tips_in_store":true,"accepts_tips_on_delivery":false,"accepts_tips_on_pickup":false,"categories":[93],"category_names":["Coffee Shop"],"delivery_menu_url":null,"extended_address":"Suite A6","facebook_url":null,"foodler_url":null,"fulfillment_types":["in_store"],"hours":"Monday - Friday\r\n7:00 am - 7:00 pm","id":8237,"image_url":"https://s3.amazonaws.com/levelup-production/merchants/5959/images/320x212_2x/IMG_2465.JPG?1499891085","latitude":42.351925,"locality":"Boston","longitude":-71.055095,"menu_url":null,"merchant_id":5959,"merchant_description_html":"","merchant_description":null,"merchant_name":"The Well Coffee House","merchant_tip_preference":"no preference","name":null,"nearby_location_count":1,"newsletter_url":null,"open_state":"open","open_state_display":"open","opentable_url":null,"phone":"","pickup_instructions":null,"pickup_menu_url":null,"postal_code":"02110","ready_time_estimate_in_minutes":null,"region":"MA","street_address":"2 South Station","twitter_url":null,"updated_at":"2017-12-10T14:08:49-05:00","yelp_url":null,"shown":true}},{"location":{"accepts_tips_in_store":true,"accepts_tips_on_delivery":false,"accepts_tips_on_pickup":false,"categories":[35,36],"category_names":["Cafe","Convenience"],"delivery_menu_url":null,"extended_address":"","facebook_url":null,"foodler_url":null,"fulfillment_types":["in_store"],"hours":null,"id":3064,"image_url":"https://s3.amazonaws.com/levelup-production/merchants/2616/images/320x212_2x/snaxexpress.jpg?1499890249","latitude":42.351983,"locality":"Boston","longitude":-71.057023,"menu_url":null,"merchant_id":2616,"merchant_description_html":"","merchant_description":null,"merchant_name":"Snax Express","merchant_tip_preference":"no preference","name":null,"nearby_location_count":1,"newsletter_url":null,"open_state":"open","open_state_display":"open","opentable_url":null,"phone":"(617) 642-8018","pickup_instructions":null,"pickup_menu_url":null,"postal_code":"02111","ready_time_estimate_in_minutes":null,"region":"MA","street_address":"60 South St","twitter_url":null,"updated_at":"2017-07-12T16:10:56-04:00","yelp_url":null,"shown":true}},{"location":{"accepts_tips_in_store":true,"accepts_tips_on_delivery":false,"accepts_tips_on_pickup":false,"categories":[32,33,35,38,40,52,53],"category_names":["Breakfast","Brunch","Cafe","Quick Bite","French","Sweets/Dessert","Vegan/Vegetarian Friendly"],"delivery_menu_url":null,"extended_address":"","facebook_url":"https://www.facebook.com/ParisCreperie","foodler_url":"http://www.foodler.com/paris-creperie/10138‎","fulfillment_types":["in_store"],"hours":null,"id":433,"image_url":"https://s3.amazonaws.com/levelup-production/merchants/406/images/320x212_2x/Email_Logo.jpg?1499889620","latitude":42.342778,"locality":"Brookline","longitude":-71.122186,"menu_url":null,"merchant_id":406,"merchant_description_html":"","merchant_description":null,"merchant_name":"Paris Creperie","merchant_tip_preference":"no preference","name":null,"nearby_location_count":1,"newsletter_url":null,"open_state":"open","open_state_display":"open","opentable_url":null,"phone":null,"pickup_instructions":null,"pickup_menu_url":null,"postal_code":"02446","ready_time_estimate_in_minutes":null,"region":"MA","street_address":"278 Harvard St.","twitter_url":"https://twitter.com/@ParisCrepeCafe","updated_at":"2017-12-05T12:45:33-05:00","yelp_url":"http://www.yelp.com/biz/paris-creperie-brookline","shown":true}},{"location":{"accepts_tips_in_store":false,"accepts_tips_on_delivery":false,"accepts_tips_on_pickup":false,"categories":[32,35,37,38,51,53],"category_names":["Breakfast","Cafe","Early Bird","Quick Bite","Sandwiches","Vegan/Vegetarian Friendly"],"delivery_menu_url":null,"extended_address":"","facebook_url":"https://www.facebook.com/pages/Rebeccas-Cafe/122459367766821","foodler_url":null,"fulfillment_types":["in_store"],"hours":"","id":5032,"image_url":"https://s3.amazonaws.com/levelup-production/merchants/4358/images/320x212_2x/Screen_Shot_2013-01-08_at_2.34.21_PM.png?1499890648","latitude":42.352176,"locality":"Boston","longitude":-71.056343,"menu_url":null,"merchant_id":4358,"merchant_description_html":"","merchant_description":null,"merchant_name":"Rebecca's Cafe","merchant_tip_preference":"unwanted","name":null,"nearby_location_count":3,"newsletter_url":null,"open_state":"open","open_state_display":"open","opentable_url":null,"phone":"","pickup_instructions":null,"pickup_menu_url":null,"postal_code":"02241","ready_time_estimate_in_minutes":null,"region":"MA","street_address":"One Financial CTR","twitter_url":"https://twitter.com/@rebeccascafe","updated_at":"2017-07-12T16:17:33-04:00","yelp_url":"http://www.yelp.com/biz/rebeccas-cafe-boston-4","shown":true}},{"location":{"accepts_tips_in_store":true,"accepts_tips_on_delivery":false,"accepts_tips_on_pickup":false,"categories":[48],"category_names":["Pizza"],"delivery_menu_url":null,"extended_address":"","facebook_url":"https://www.facebook.com/DirtyWaterDough","foodler_url":null,"fulfillment_types":["in_store"],"hours":"","id":8977,"image_url":"https://s3.amazonaws.com/levelup-production/merchants/5796/images/320x212_2x/dirty.jpg?1499891032","latitude":42.349734,"locality":"Boston","longitude":-71.081072,"menu_url":null,"merchant_id":5796,"merchant_description_html":"","merchant_description":null,"merchant_name":"Dirty Water Dough","merchant_tip_preference":"no preference","name":null,"nearby_location_count":1,"newsletter_url":null,"open_state":"open","open_state_display":"open","opentable_url":null,"phone":"(617) 262-0090","pickup_instructions":null,"pickup_menu_url":null,"postal_code":"02116","ready_time_estimate_in_minutes":null,"region":"MA","street_address":"222 Newbury St.","twitter_url":"https://twitter.com/@DirtyWaterDough","updated_at":"2017-07-12T16:23:57-04:00","yelp_url":"http://www.yelp.com/biz/dirty-water-dough-company-boston","shown":true}},{"location":{"accepts_tips_in_store":true,"accepts_tips_on_delivery":false,"accepts_tips_on_pickup":false,"categories":[56],"category_names":["Spanish"],"delivery_menu_url":null,"extended_address":"","facebook_url":null,"foodler_url":null,"fulfillment_types":["in_store"],"hours":"","id":8780,"image_url":"https://s3.amazonaws.com/levelup-production/merchants/6080/images/320x212_2x/coming_soon.png?1499891133","latitude":42.351532,"locality":"Boston","longitude":-71.066845,"menu_url":null,"merchant_id":6080,"merchant_description_html":"","merchant_description":null,"merchant_name":"Herrera's","merchant_tip_preference":"no preference","name":null,"nearby_location_count":2,"newsletter_url":null,"open_state":"open","open_state_display":"open","opentable_url":null,"phone":"(617) 720-4371","pickup_instructions":null,"pickup_menu_url":null,"postal_code":"02116","ready_time_estimate_in_minutes":null,"region":"MA","street_address":"8-10 Park Plaza","twitter_url":null,"updated_at":"2017-07-12T16:25:45-04:00","yelp_url":"http://www.yelp.com/biz/herreras-boston","shown":true}},{"location":{"accepts_tips_in_store":true,"accepts_tips_on_delivery":false,"accepts_tips_on_pickup":false,"categories":[52],"category_names":["Sweets/Dessert"],"delivery_menu_url":null,"extended_address":"","facebook_url":"https://www.facebook.com/AmorinoGelato","foodler_url":null,"fulfillment_types":["in_store"],"hours":"","id":9273,"image_url":"https://s3.amazonaws.com/levelup-production/merchants/6409/images/320x212_2x/coming_soon.png?1499891239","latitude":42.349767,"locality":"Boston","longitude":-71.082812,"menu_url":null,"merchant_id":6409,"merchant_description_html":"","merchant_description":null,"merchant_name":"NIMBA LLC dba Amorino","merchant_tip_preference":"no preference","name":"Newbury St.","nearby_location_count":1,"newsletter_url":null,"open_state":"open","open_state_display":"open","opentable_url":null,"phone":"(617) 953-9682","pickup_instructions":null,"pickup_menu_url":null,"postal_code":"02116","ready_time_estimate_in_minutes":null,"region":"MA","street_address":"249 Newbury St.","twitter_url":null,"updated_at":"2017-07-12T16:27:24-04:00","yelp_url":null,"shown":true}},{"location":{"accepts_tips_in_store":true,"accepts_tips_on_delivery":false,"accepts_tips_on_pickup":false,"categories":[35,36,38,53],"category_names":["Cafe","Convenience","Quick Bite","Vegan/Vegetarian Friendly"],"delivery_menu_url":null,"extended_address":"","facebook_url":"https://www.facebook.com/diginnmarket","foodler_url":null,"fulfillment_types":["in_store"],"hours":"Monday to Friday\r\nBreakfast |   7:00am — 10:30am\r\nStandard Menu |   10:30am — 10pm\r\n\r\nSaturday to Sunday\r\nBrunch |   10:00am — 3pm\r\nStandard Menu  |   3pm — 10pm","id":17533,"image_url":"https://s3.amazonaws.com/levelup-production/merchants/5742/images/320x212_2x/Marketplates-4-hands.jpg?1499891018","latitude":42.350632,"locality":"Boston","longitude":-71.076018,"menu_url":null,"merchant_id":5742,"merchant_description_html":"","merchant_description":null,"merchant_name":"Dig Inn Seasonal Market","merchant_tip_preference":"no preference","name":"Back Bay","nearby_location_count":2,"newsletter_url":null,"open_state":"open","open_state_display":"open","opentable_url":null,"phone":"(617) 904-3711","pickup_instructions":null,"pickup_menu_url":null,"postal_code":"02116","ready_time_estimate_in_minutes":null,"region":"MA","street_address":"557 Boylston Street","twitter_url":"https://twitter.com/@diginn","updated_at":"2017-09-05T23:25:45-04:00","yelp_url":"http://www.yelp.com/biz/dig-inn-seasonal-market-new-york-6","shown":true}},{"location":{"accepts_tips_in_store":true,"accepts_tips_on_delivery":false,"accepts_tips_on_pickup":false,"categories":[35,38],"category_names":["Cafe","Quick Bite"],"delivery_menu_url":null,"extended_address":"","facebook_url":"https://www.facebook.com/finagleabagel","foodler_url":null,"fulfillment_types":["in_store"],"hours":"M-F 6a-8p\r\nSat-Sun 7am-6pm","id":10441,"image_url":"https://s3.amazonaws.com/levelup-production/merchants/6639/images/320x212_2x/finagle.jpg?1499891308","latitude":42.350853,"locality":"Boston","longitude":-71.075566,"menu_url":null,"merchant_id":6639,"merchant_description_html":"","merchant_description":null,"merchant_name":"Finagle A Bagel","merchant_tip_preference":"no preference","name":null,"nearby_location_count":1,"newsletter_url":null,"open_state":"open","open_state_display":"open","opentable_url":null,"phone":"(617) 266-2500","pickup_instructions":null,"pickup_menu_url":null,"postal_code":"02116","ready_time_estimate_in_minutes":null,"region":"MA","street_address":"535 Boylston St.","twitter_url":null,"updated_at":"2017-07-12T16:28:37-04:00","yelp_url":"http://www.yelp.com/biz/finagle-a-bagel-boston-6","shown":true}},{"location":{"accepts_tips_in_store":false,"accepts_tips_on_delivery":false,"accepts_tips_on_pickup":false,"categories":[28,36,38,44,51,53],"category_names":["American","Convenience","Quick Bite","Mediterranean","Sandwiches","Vegan/Vegetarian Friendly"],"delivery_menu_url":"https://api.thelevelup.com/v15/order_ahead/menus/651699","extended_address":"","facebook_url":"https://www.facebook.com/eatverts","foodler_url":null,"fulfillment_types":["delivery","in_store","pickup"],"hours":"11:00a - 10:00p","id":28035,"image_url":"https://s3.amazonaws.com/levelup-production/merchants/6905/images/320x212_2x/Noon_Merchant_email.png?1511907603","latitude":42.350852,"locality":"Boston","longitude":-71.075896,"menu_url":"http://www.eatverts.com/menu","merchant_id":6905,"merchant_description_html":"","merchant_description":null,"merchant_name":"Noon Mediterranean","merchant_tip_preference":"unwanted","name":"545 Boylston","nearby_location_count":3,"newsletter_url":null,"open_state":"open","open_state_display":"open","opentable_url":null,"phone":"(617) 859-4971","pickup_instructions":null,"pickup_menu_url":"https://api.thelevelup.com/v15/order_ahead/menus/651699","postal_code":"02116","ready_time_estimate_in_minutes":null,"region":"MA","street_address":"545 Boylston St.","twitter_url":"https://twitter.com/eatverts","updated_at":"2018-02-02T03:05:27-05:00","yelp_url":"https://www.yelp.com/biz/verts-mediterranean-grill-austin-7","shown":true}},{"location":{"accepts_tips_in_store":true,"accepts_tips_on_delivery":false,"accepts_tips_on_pickup":false,"categories":[28],"category_names":["American"],"delivery_menu_url":null,"extended_address":"","facebook_url":"https://www.facebook.com/Foodler","foodler_url":null,"fulfillment_types":["in_store"],"hours":"","id":7207,"image_url":"https://s3.amazonaws.com/levelup-production/merchants/5639/images/320x212_2x/foodler_orange_640_424.png?1499890989","latitude":41.816736,"locality":"Providence","longitude":-71.409156,"menu_url":null,"merchant_id":5639,"merchant_description_html":"","merchant_description":null,"merchant_name":"Foodler","merchant_tip_preference":"no preference","name":null,"nearby_location_count":1,"newsletter_url":null,"open_state":"open","open_state_display":"open","opentable_url":null,"phone":"(617) 642-2151","pickup_instructions":null,"pickup_menu_url":null,"postal_code":"02903","ready_time_estimate_in_minutes":null,"region":"RI","street_address":"Foodler","twitter_url":"https://twitter.com/Foodler","updated_at":"2017-07-12T16:23:22-04:00","yelp_url":null,"shown":true}},{"location":{"accepts_tips_in_store":true,"accepts_tips_on_delivery":false,"accepts_tips_on_pickup":false,"categories":[48],"category_names":["Pizza"],"delivery_menu_url":null,"extended_address":"","facebook_url":"https://www.facebook.com/CrazyDoughsPizza","foodler_url":null,"fulfillment_types":["in_store"],"hours":"","id":3523,"image_url":"https://s3.amazonaws.com/levelup-production/merchants/3019/images/320x212_2x/crazydoughs.jpg?1499890362","latitude":42.352102,"locality":"Boston","longitude":-71.067344,"menu_url":null,"merchant_id":3019,"merchant_description_html":"","merchant_description":null,"merchant_name":"Crazy Dough's Pizza","merchant_tip_preference":"no preference","name":null,"nearby_location_count":2,"newsletter_url":null,"open_state":"open","open_state_display":"open","opentable_url":null,"phone":"(617) 391-0091","pickup_instructions":null,"pickup_menu_url":null,"postal_code":"02116","ready_time_estimate_in_minutes":null,"region":"MA","street_address":"8 Park Plaza","twitter_url":"https://twitter.com/@CrazyDoughs","updated_at":"2017-07-12T16:12:47-04:00","yelp_url":"http://www.yelp.com/biz/crazy-doughs-pizza-boston-2","shown":true}},{"location":{"accepts_tips_in_store":true,"accepts_tips_on_delivery":false,"accepts_tips_on_pickup":false,"categories":[28,50],"category_names":["American","Sit-Down Restaurant"],"delivery_menu_url":null,"extended_address":"","facebook_url":"https://www.facebook.com/pages/Blu/100472435765","foodler_url":null,"fulfillment_types":["in_store"],"hours":"","id":8720,"image_url":"https://s3.amazonaws.com/levelup-production/merchants/6148/images/320x212_2x/Blu.jpeg?1499891158","latitude":42.353053,"locality":"Boston","longitude":-71.063112,"menu_url":null,"merchant_id":6148,"merchant_description_html":"","merchant_description":null,"merchant_name":"Blu at Sports Club LA","merchant_tip_preference":"no preference","name":null,"nearby_location_count":1,"newsletter_url":null,"open_state":"open","open_state_display":"open","opentable_url":null,"phone":"(617) 375-8550","pickup_instructions":null,"pickup_menu_url":null,"postal_code":"02111","ready_time_estimate_in_minutes":null,"region":"MA","street_address":"4 Avery Street","twitter_url":"https://twitter.com/blurestaurant","updated_at":"2017-07-12T16:26:02-04:00","yelp_url":"http://www.yelp.com/biz/blu-restaurant-and-bar-boston","shown":true}},{"location":{"accepts_tips_in_store":false,"accepts_tips_on_delivery":false,"accepts_tips_on_pickup":false,"categories":[323],"category_names":["Bakery"],"delivery_menu_url":null,"extended_address":"","facebook_url":null,"foodler_url":null,"fulfillment_types":["in_store"],"hours":"Monday – Saturday 10am – 9pm, \r\nSunday 10am – 8pm","id":8039,"image_url":"https://s3.amazonaws.com/levelup-production/merchants/5868/images/320x212_2x/georgetown.jpeg?1499891056","latitude":42.351818,"locality":"Boston","longitude":-71.074831,"menu_url":null,"merchant_id":5868,"merchant_description_html":"","merchant_description":"Bakery","merchant_name":"Georgetown Cupcake","merchant_tip_preference":"unwanted","name":"Boston ","nearby_location_count":1,"newsletter_url":null,"open_state":"open","open_state_display":"open","opentable_url":null,"phone":"(617) 927-2250","pickup_instructions":null,"pickup_menu_url":null,"postal_code":"02116","ready_time_estimate_in_minutes":null,"region":"MA","street_address":"83 Newbury Street","twitter_url":null,"updated_at":"2018-02-01T12:53:00-05:00","yelp_url":null,"shown":true}},{"location":{"accepts_tips_in_store":true,"accepts_tips_on_delivery":false,"accepts_tips_on_pickup":false,"categories":[35,37,93],"category_names":["Cafe","Early Bird","Coffee Shop"],"delivery_menu_url":null,"extended_address":"","facebook_url":"https://www.facebook.com/fleckcoffee","foodler_url":null,"fulfillment_types":["in_store"],"hours":"","id":9742,"image_url":"https://s3.amazonaws.com/levelup-production/merchants/6433/images/320x212_2x/fleck-coffee-logo.png?1499891246","latitude":42.321899,"locality":"Newton Highlands","longitude":-71.206711,"menu_url":null,"merchant_id":6433,"merchant_description_html":"","merchant_description":null,"merchant_name":"Fleck Coffee","merchant_tip_preference":"no preference","name":null,"nearby_location_count":1,"newsletter_url":null,"open_state":"open","open_state_display":"open","opentable_url":null,"phone":"(617) 467-5904","pickup_instructions":null,"pickup_menu_url":null,"postal_code":"02461","ready_time_estimate_in_minutes":null,"region":"MA","street_address":"1169 Walnut Street","twitter_url":"https://twitter.com/fleckcoffee","updated_at":"2017-07-12T16:27:33-04:00","yelp_url":"http://www.yelp.com/biz/fleck-newton-highlands","shown":true}},{"location":{"accepts_tips_in_store":true,"accepts_tips_on_delivery":false,"accepts_tips_on_pickup":false,"categories":[33,34,38,42,48],"category_names":["Brunch","Burgers","Quick Bite","Italian","Pizza"],"delivery_menu_url":null,"extended_address":"","facebook_url":"https://www.facebook.com/scooziboston","foodler_url":null,"fulfillment_types":["in_store"],"hours":"","id":5178,"image_url":"https://s3.amazonaws.com/levelup-production/merchants/4457/images/320x212_2x/Scoozi_600.jpg?1499890678","latitude":42.348907,"locality":"Boston","longitude":-71.099547,"menu_url":null,"merchant_id":4457,"merchant_description_html":"","merchant_description":null,"merchant_name":"Scoozi","merchant_tip_preference":"no preference","name":null,"nearby_location_count":1,"newsletter_url":null,"open_state":"open","open_state_display":"open","opentable_url":null,"phone":"(617) 536-7777","pickup_instructions":null,"pickup_menu_url":null,"postal_code":"02215","ready_time_estimate_in_minutes":null,"region":"MA","street_address":"580 Commonwealth Ave","twitter_url":"https://twitter.com/@scooziboston","updated_at":"2017-07-12T16:18:05-04:00","yelp_url":"http://www.yelp.com/biz/scoozi-boston-2","shown":true}},{"location":{"accepts_tips_in_store":true,"accepts_tips_on_delivery":false,"accepts_tips_on_pickup":false,"categories":[391],"category_names":["Smoothies and Juices"],"delivery_menu_url":null,"extended_address":"","facebook_url":"https://www.facebook.com/kwenchcafe","foodler_url":null,"fulfillment_types":["in_store"],"hours":"Mon: Closed\r\nT-Fri: 10:00 am - 6:00 pm\r\nSat: 10:00 am - 5:00 pm\r\nSun: 9:00 am - 3:00 pm","id":10674,"image_url":"https://s3.amazonaws.com/levelup-production/merchants/6679/images/320x212_2x/kwenchLogo.png?1499891320","latitude":42.354552,"locality":"Boston","longitude":-71.054087,"menu_url":null,"merchant_id":6679,"merchant_description_html":"","merchant_description":"Smoothies and Juices","merchant_name":"Kwench Juice Cafe","merchant_tip_preference":"expected","name":null,"nearby_location_count":1,"newsletter_url":null,"open_state":"open","open_state_display":"open","opentable_url":null,"phone":"(617) 292-9222","pickup_instructions":null,"pickup_menu_url":null,"postal_code":"02110","ready_time_estimate_in_minutes":null,"region":"MA","street_address":"230 Congress Street","twitter_url":"https://twitter.com/kwenchjuicecafe","updated_at":"2017-12-12T10:32:53-05:00","yelp_url":"http://www.yelp.com/biz/kwench-campbell","shown":true}},{"location":{"accepts_tips_in_store":true,"accepts_tips_on_delivery":false,"accepts_tips_on_pickup":false,"categories":[32,36,37,38,51,57],"category_names":["Breakfast","Convenience","Early Bird","Quick Bite","Sandwiches","Grocery"],"delivery_menu_url":null,"extended_address":"","facebook_url":"https://www.facebook.com/pages/Quality-Mart/353763034694388","foodler_url":null,"fulfillment_types":["in_store"],"hours":null,"id":2653,"image_url":"https://s3.amazonaws.com/levelup-production/merchants/2233/images/320x212_2x/qualitymart.jpg?1499890151","latitude":42.35069,"locality":"Boston","longitude":-71.089558,"menu_url":null,"merchant_id":2233,"merchant_description_html":"","merchant_description":null,"merchant_name":"Quality Mart","merchant_tip_preference":"no preference","name":null,"nearby_location_count":1,"newsletter_url":null,"open_state":"open","open_state_display":"open","opentable_url":null,"phone":"(617) 859-1804","pickup_instructions":null,"pickup_menu_url":null,"postal_code":"02115","ready_time_estimate_in_minutes":null,"region":"MA","street_address":"21 Massachusetts Ave.","twitter_url":"https://twitter.com/qualitymart1","updated_at":"2017-07-12T16:09:18-04:00","yelp_url":"http://www.yelp.com/biz/quality-mart-boston","shown":true}},{"location":{"accepts_tips_in_store":true,"accepts_tips_on_delivery":false,"accepts_tips_on_pickup":false,"categories":[28,32,35,37,38,42,48,51],"category_names":["American","Breakfast","Cafe","Early Bird","Quick Bite","Italian","Pizza","Sandwiches"],"delivery_menu_url":null,"extended_address":"","facebook_url":"https://www.facebook.com/udgboston","foodler_url":null,"fulfillment_types":["in_store"],"hours":null,"id":2124,"image_url":"https://s3.amazonaws.com/levelup-production/merchants/1850/images/320x212_2x/udg-sandwich.png?1499890047","latitude":42.354509,"locality":"Boston","longitude":-71.059149,"menu_url":null,"merchant_id":1850,"merchant_description_html":"","merchant_description":null,"merchant_name":"Uno Dué Go","merchant_tip_preference":"no preference","name":null,"nearby_location_count":1,"newsletter_url":null,"open_state":"open","open_state_display":"open","opentable_url":null,"phone":"(617) 695-1834","pickup_instructions":null,"pickup_menu_url":null,"postal_code":"02110","ready_time_estimate_in_minutes":null,"region":"MA","street_address":"52 Summer Street","twitter_url":"https://twitter.com/@UDGBoston","updated_at":"2018-01-22T13:57:46-05:00","yelp_url":"http://www.yelp.com/biz/uno-due-go-boston","shown":true}},{"location":{"accepts_tips_in_store":true,"accepts_tips_on_delivery":false,"accepts_tips_on_pickup":false,"categories":[38,44],"category_names":["Quick Bite","Mediterranean"],"delivery_menu_url":null,"extended_address":"","facebook_url":"https://www.facebook.com/CafeDeBoston","foodler_url":"http://www.foodler.com/cafe-de-boston/12141","fulfillment_types":["in_store"],"hours":"","id":956,"image_url":"https://s3.amazonaws.com/levelup-production/merchants/870/images/320x212_2x/Cafe_De_Boston.jpg?1499889758","latitude":42.355083,"locality":"Boston","longitude":-71.056513,"menu_url":null,"merchant_id":870,"merchant_description_html":"","merchant_description":null,"merchant_name":"Cafe De Boston","merchant_tip_preference":"no preference","name":null,"nearby_location_count":1,"newsletter_url":null,"open_state":"open","open_state_display":"open","opentable_url":null,"phone":"(617) 482-1006","pickup_instructions":null,"pickup_menu_url":null,"postal_code":"02110","ready_time_estimate_in_minutes":null,"region":"MA","street_address":"75 Federal St","twitter_url":"https://twitter.com/@CafeDeBoston","updated_at":"2017-07-12T16:02:43-04:00","yelp_url":"http://www.yelp.com/biz/cafe-de-boston-boston","shown":true}},{"location":{"accepts_tips_in_store":true,"accepts_tips_on_delivery":false,"accepts_tips_on_pickup":false,"categories":[35],"category_names":["Cafe"],"delivery_menu_url":null,"extended_address":"Suite 110","facebook_url":null,"foodler_url":null,"fulfillment_types":["in_store"],"hours":"","id":7929,"image_url":"https://s3.amazonaws.com/levelup-production/merchants/5869/images/320x212_2x/Grassroots.jpg?1499891056","latitude":42.355006,"locality":"Boston","longitude":-71.058632,"menu_url":null,"merchant_id":5869,"merchant_description_html":"","merchant_description":null,"merchant_name":"Grass Roots Cafe","merchant_tip_preference":"no preference","name":null,"nearby_location_count":1,"newsletter_url":null,"open_state":"open","open_state_display":"open","opentable_url":null,"phone":"(617) 951-2124","pickup_instructions":null,"pickup_menu_url":null,"postal_code":"02110","ready_time_estimate_in_minutes":null,"region":"MA","street_address":"101 Arch St","twitter_url":null,"updated_at":"2017-07-12T16:24:20-04:00","yelp_url":null,"shown":true}},{"location":{"accepts_tips_in_store":true,"accepts_tips_on_delivery":false,"accepts_tips_on_pickup":false,"categories":[28,32,35,37,38,51],"category_names":["American","Breakfast","Cafe","Early Bird","Quick Bite","Sandwiches"],"delivery_menu_url":null,"extended_address":"Suite 150","facebook_url":null,"foodler_url":null,"fulfillment_types":["in_store"],"hours":"6am-4pm","id":8493,"image_url":"https://s3.amazonaws.com/levelup-production/merchants/6028/images/320x212_2x/archies.jpg?1499891109","latitude":42.355043,"locality":"Boston","longitude":-71.058779,"menu_url":null,"merchant_id":6028,"merchant_description_html":"","merchant_description":null,"merchant_name":"Archie's New York Deli","merchant_tip_preference":"no preference","name":null,"nearby_location_count":1,"newsletter_url":null,"open_state":"open","open_state_display":"open","opentable_url":null,"phone":"(617) 330-5145","pickup_instructions":null,"pickup_menu_url":null,"postal_code":"02110","ready_time_estimate_in_minutes":null,"region":"MA","street_address":"101 Arch Street","twitter_url":null,"updated_at":"2018-01-25T13:56:34-05:00","yelp_url":null,"shown":true}},{"location":{"accepts_tips_in_store":true,"accepts_tips_on_delivery":false,"accepts_tips_on_pickup":false,"categories":[28,31,45,50],"category_names":["American","Bar","Mexican","Sit-Down Restaurant"],"delivery_menu_url":null,"extended_address":"","facebook_url":"http://www.facebook.com/fajitasandritas?sk=wall","foodler_url":null,"fulfillment_types":["in_store"],"hours":null,"id":25,"image_url":"https://s3.amazonaws.com/levelup-production/merchants/26/images/320x212_2x/FR_branded-logo_background.jpg?1499892982","latitude":42.354793,"locality":"Boston","longitude":-71.062463,"menu_url":null,"merchant_id":26,"merchant_description_html":"","merchant_description":null,"merchant_name":"Fajitas \u0026 'Ritas","merchant_tip_preference":"no preference","name":null,"nearby_location_count":1,"newsletter_url":null,"open_state":"open","open_state_display":"open","opentable_url":null,"phone":null,"pickup_instructions":null,"pickup_menu_url":null,"postal_code":"02111","ready_time_estimate_in_minutes":null,"region":"MA","street_address":"25 West Street","twitter_url":"https://twitter.com/fajitasandritas","updated_at":"2017-07-12T16:56:26-04:00","yelp_url":"http://www.yelp.com/biz/fajitas-and-ritas-boston-2","shown":true}},{"location":{"accepts_tips_in_store":false,"accepts_tips_on_delivery":false,"accepts_tips_on_pickup":false,"categories":[393],"category_names":["Soup"],"delivery_menu_url":null,"extended_address":"","facebook_url":"https://www.facebook.com/haleandhearty","foodler_url":null,"fulfillment_types":["in_store"],"hours":"Mon-Fri 10:00am-8:00pm \r\nSat-Sun Closed","id":9723,"image_url":"https://s3.amazonaws.com/levelup-production/merchants/6015/images/320x212_2x/rsz_rsz_1hh-tom-corn-basil-2400x1600.jpg?1499891105","latitude":42.355662,"locality":"Boston","longitude":-71.055109,"menu_url":null,"merchant_id":6015,"merchant_description_html":"","merchant_description":"Soup","merchant_name":"Hale and Hearty Soups","merchant_tip_preference":"unwanted","name":"Franklin St","nearby_location_count":1,"newsletter_url":null,"open_state":"open","open_state_display":"open","opentable_url":null,"phone":"(617) 330-1900","pickup_instructions":null,"pickup_menu_url":null,"postal_code":"02110","ready_time_estimate_in_minutes":null,"region":"MA","street_address":"185 Franklin St","twitter_url":"https://twitter.com/haleheartysoups","updated_at":"2018-02-01T12:52:28-05:00","yelp_url":"http://www.yelp.com/biz/hale-and-hearty-new-york-6","shown":true}},{"location":{"accepts_tips_in_store":true,"accepts_tips_on_delivery":false,"accepts_tips_on_pickup":false,"categories":[44,53,354],"category_names":["Mediterranean","Vegan/Vegetarian Friendly","Gluten Free"],"delivery_menu_url":null,"extended_address":"","facebook_url":null,"foodler_url":null,"fulfillment_types":["in_store"],"hours":"","id":8500,"image_url":"https://s3.amazonaws.com/levelup-production/merchants/6029/images/320x212_2x/Bonapita_cropped.jpg?1502736508","latitude":42.355601,"locality":"Boston","longitude":-71.058697,"menu_url":null,"merchant_id":6029,"merchant_description_html":"","merchant_description":"Casual Mediterranean eatery","merchant_name":"BONAPITA","merchant_tip_preference":"no preference","name":null,"nearby_location_count":1,"newsletter_url":null,"open_state":"open","open_state_display":"open","opentable_url":null,"phone":"(857) 350-4606","pickup_instructions":null,"pickup_menu_url":null,"postal_code":"02110","ready_time_estimate_in_minutes":null,"region":"MA","street_address":"49 Franklin Street","twitter_url":null,"updated_at":"2018-01-09T17:00:59-05:00","yelp_url":"http://www.yelp.com/biz/bonapita-boston-2","shown":true}},{"location":{"accepts_tips_in_store":true,"accepts_tips_on_delivery":false,"accepts_tips_on_pickup":false,"categories":[30,35,38,51,53],"category_names":["Asian","Cafe","Quick Bite","Sandwiches","Vegan/Vegetarian Friendly"],"delivery_menu_url":null,"extended_address":"","facebook_url":"https://www.facebook.com/foumami","foodler_url":null,"fulfillment_types":["in_store"],"hours":null,"id":3666,"image_url":"https://s3.amazonaws.com/levelup-production/merchants/3115/images/320x212_2x/foumami.png?1499890396","latitude":42.356332,"locality":"Boston","longitude":-71.05426,"menu_url":null,"merchant_id":3115,"merchant_description_html":"","merchant_description":null,"merchant_name":"Foumami","merchant_tip_preference":"no preference","name":null,"nearby_location_count":1,"newsletter_url":null,"open_state":"open","open_state_display":"open","opentable_url":null,"phone":"(617) 426-8858","pickup_instructions":null,"pickup_menu_url":null,"postal_code":"02110","ready_time_estimate_in_minutes":null,"region":"MA","street_address":"225 Franklin St","twitter_url":"https://twitter.com/@foumami","updated_at":"2018-01-19T11:14:33-05:00","yelp_url":"http://www.yelp.com/biz/f%C3%B3umami-boston-3","shown":true}},{"location":{"accepts_tips_in_store":true,"accepts_tips_on_delivery":false,"accepts_tips_on_pickup":false,"categories":[38,42,48],"category_names":["Quick Bite","Italian","Pizza"],"delivery_menu_url":null,"extended_address":"","facebook_url":"https://www.facebook.com/zitisexpress","foodler_url":null,"fulfillment_types":["in_store"],"hours":"11:00am-11:00pm","id":10308,"image_url":"https://s3.amazonaws.com/levelup-production/merchants/6582/images/320x212_2x/zitis.jpg?1499891294","latitude":42.355666,"locality":"Boston","longitude":-71.062577,"menu_url":null,"merchant_id":6582,"merchant_description_html":"","merchant_description":null,"merchant_name":"Ziti's Italian Express","merchant_tip_preference":"no preference","name":null,"nearby_location_count":1,"newsletter_url":null,"open_state":"open","open_state_display":"open","opentable_url":null,"phone":"(508) 726-0013","pickup_instructions":null,"pickup_menu_url":null,"postal_code":"02111","ready_time_estimate_in_minutes":null,"region":"MA","street_address":"140 Tremont St","twitter_url":null,"updated_at":"2017-08-21T10:08:53-04:00","yelp_url":"http://www.yelp.com/biz/zitis-italian-express-boston","shown":true}},{"location":{"accepts_tips_in_store":true,"accepts_tips_on_delivery":false,"accepts_tips_on_pickup":false,"categories":[32,35,36,38,52,53,57],"category_names":["Breakfast","Cafe","Convenience","Quick Bite","Sweets/Dessert","Vegan/Vegetarian Friendly","Grocery"],"delivery_menu_url":null,"extended_address":"","facebook_url":null,"foodler_url":null,"fulfillment_types":["in_store"],"hours":"Mon-Fri 7am-7pm, Sat 12pm-5pm, Sun - Closed","id":99482,"image_url":"https://s3.amazonaws.com/levelup-production/merchants/53594/images/320x212_2x/no_merchant_image.png?1499909904","latitude":42.355666,"locality":"Boston","longitude":-71.062578,"menu_url":null,"merchant_id":53594,"merchant_description_html":"","merchant_description":null,"merchant_name":"Lambert's Boston Common","merchant_tip_preference":"no preference","name":null,"nearby_location_count":1,"newsletter_url":null,"open_state":"open","open_state_display":"open","opentable_url":null,"phone":"(617) 338-6500","pickup_instructions":null,"pickup_menu_url":null,"postal_code":"02111","ready_time_estimate_in_minutes":null,"region":"MA","street_address":"140 Tremont St","twitter_url":null,"updated_at":"2017-10-03T09:10:52-04:00","yelp_url":null,"shown":true}},{"location":{"accepts_tips_in_store":true,"accepts_tips_on_delivery":false,"accepts_tips_on_pickup":false,"categories":[35,38,51],"category_names":["Cafe","Quick Bite","Sandwiches"],"delivery_menu_url":null,"extended_address":"","facebook_url":null,"foodler_url":null,"fulfillment_types":["in_store"],"hours":"M-F, 9 AM - 3 PM","id":1117,"image_url":"https://s3.amazonaws.com/levelup-production/merchants/1003/images/320x212_2x/Buccieris_Cafe.jpg?1499889783","latitude":42.356696,"locality":"Boston","longitude":-71.053936,"menu_url":null,"merchant_id":1003,"merchant_description_html":"","merchant_description":null,"merchant_name":"Oliver St Cafe","merchant_tip_preference":"no preference","name":null,"nearby_location_count":1,"newsletter_url":null,"open_state":"open","open_state_display":"open","opentable_url":null,"phone":"(617) 330-5355","pickup_instructions":null,"pickup_menu_url":null,"postal_code":"02110","ready_time_estimate_in_minutes":null,"region":"MA","street_address":"260 Franklin St.","twitter_url":null,"updated_at":"2017-07-12T16:03:08-04:00","yelp_url":"http://www.yelp.com/biz/buccieris-cafe-boston","shown":true}},{"location":{"accepts_tips_in_store":true,"accepts_tips_on_delivery":false,"accepts_tips_on_pickup":false,"categories":[35,51,53],"category_names":["Cafe","Sandwiches","Vegan/Vegetarian Friendly"],"delivery_menu_url":null,"extended_address":"","facebook_url":"https://www.facebook.com/TossedHQ","foodler_url":null,"fulfillment_types":["in_store"],"hours":"M–F 7a-7p Sa 11a-3p Su: CLOSED","id":6944,"image_url":"https://s3.amazonaws.com/levelup-production/merchants/5503/images/320x212_2x/Southwest_Blackened_Chicken_Salad.jpg?1499890954","latitude":42.356664,"locality":"Boston","longitude":-71.055305,"menu_url":null,"merchant_id":5503,"merchant_description_html":"","merchant_description":null,"merchant_name":"Tossed","merchant_tip_preference":"no preference","name":"One Post Office Square","nearby_location_count":1,"newsletter_url":null,"open_state":"open","open_state_display":"open","opentable_url":null,"phone":"(617) 423-0700","pickup_instructions":null,"pickup_menu_url":null,"postal_code":"02109","ready_time_estimate_in_minutes":null,"region":"MA","street_address":"One Post Office Square","twitter_url":"https://twitter.com/@Get_Tossed","updated_at":"2017-07-27T12:10:25-04:00","yelp_url":"http://www.yelp.com/biz/tossed-boston","shown":true}},{"location":{"accepts_tips_in_store":true,"accepts_tips_on_delivery":false,"accepts_tips_on_pickup":false,"categories":[32,35,44,53],"category_names":["Breakfast","Cafe","Mediterranean","Vegan/Vegetarian Friendly"],"delivery_menu_url":null,"extended_address":"","facebook_url":"https://www.facebook.com/pages/Flame-Cafe/611152228941071","foodler_url":"http://www.foodler.com/flame-cafe/16360","fulfillment_types":["in_store"],"hours":"M-F: 7-3","id":7266,"image_url":"https://s3.amazonaws.com/levelup-production/merchants/5679/images/320x212_2x/Front.jpg?1499890995","latitude":42.357127,"locality":"Boston","longitude":-71.054384,"menu_url":"http://flamecafeofboston.com/menu","merchant_id":5679,"merchant_description_html":"","merchant_description":null,"merchant_name":"Flame Cafe (Greek \u0026 Armenian traditional food)","merchant_tip_preference":"no preference","name":null,"nearby_location_count":1,"newsletter_url":null,"open_state":"open","open_state_display":"open","opentable_url":null,"phone":"(617) 615-9792","pickup_instructions":null,"pickup_menu_url":null,"postal_code":"02109","ready_time_estimate_in_minutes":null,"region":"MA","street_address":"2 Oliver St","twitter_url":"https://twitter.com/@FlameCafeBoston","updated_at":"2017-07-12T16:23:19-04:00","yelp_url":"http://www.yelp.com/biz/flame-cafe-boston","shown":true}},{"location":{"accepts_tips_in_store":false,"accepts_tips_on_delivery":false,"accepts_tips_on_pickup":false,"categories":[28],"category_names":["American"],"delivery_menu_url":null,"extended_address":"","facebook_url":"https://www.facebook.com/JoshuasDeli","foodler_url":null,"fulfillment_types":["in_store"],"hours":"","id":8175,"image_url":"https://s3.amazonaws.com/levelup-production/merchants/5950/images/320x212_2x/Joshuas_Deli.jpg?1499891081","latitude":42.357476,"locality":"Boston","longitude":-71.053914,"menu_url":null,"merchant_id":5950,"merchant_description_html":"","merchant_description":null,"merchant_name":"Joshua's Deli","merchant_tip_preference":"unwanted","name":null,"nearby_location_count":1,"newsletter_url":null,"open_state":"open","open_state_display":"open","opentable_url":null,"phone":"(617) 451-7779","pickup_instructions":null,"pickup_menu_url":null,"postal_code":"02110","ready_time_estimate_in_minutes":null,"region":"MA","street_address":"44 Batterymarch St","twitter_url":null,"updated_at":"2017-07-12T16:24:54-04:00","yelp_url":"http://www.yelp.com/biz/joshuas-deli-boston","shown":true}},{"location":{"accepts_tips_in_store":true,"accepts_tips_on_delivery":false,"accepts_tips_on_pickup":false,"categories":[28,35,38,51,52],"category_names":["American","Cafe","Quick Bite","Sandwiches","Sweets/Dessert"],"delivery_menu_url":null,"extended_address":"","facebook_url":"https://www.facebook.com/maxsdelicafe","foodler_url":null,"fulfillment_types":["in_store"],"hours":"","id":6206,"image_url":"https://s3.amazonaws.com/levelup-production/merchants/5004/images/320x212_2x/coming_soon.png?1499890844","latitude":42.357668,"locality":"Boston","longitude":-71.054408,"menu_url":null,"merchant_id":5004,"merchant_description_html":"","merchant_description":null,"merchant_name":"Max's Deli Cafe","merchant_tip_preference":"no preference","name":null,"nearby_location_count":1,"newsletter_url":null,"open_state":"open","open_state_display":"open","opentable_url":null,"phone":"(617) 330-9790","pickup_instructions":null,"pickup_menu_url":null,"postal_code":"02109","ready_time_estimate_in_minutes":null,"region":"MA","street_address":"151 Milk Street","twitter_url":null,"updated_at":"2017-07-12T16:20:51-04:00","yelp_url":"http://www.yelp.com/biz/maxs-deli-cafe-boston","shown":true}},{"location":{"accepts_tips_in_store":false,"accepts_tips_on_delivery":false,"accepts_tips_on_pickup":false,"categories":[53],"category_names":["Vegan/Vegetarian Friendly"],"delivery_menu_url":null,"extended_address":"","facebook_url":"https://www.facebook.com/thirstjuiceco","foodler_url":null,"fulfillment_types":["in_store"],"hours":"Mon-Fri: 7:00am-7:00pm \r\nSaturday: 10:00am-4:00pm \r\nSunday: Closed","id":10444,"image_url":"https://s3.amazonaws.com/levelup-production/merchants/6642/images/320x212_2x/thirst_juice.jpeg?1499891310","latitude":42.357619,"locality":"Boston","longitude":-71.059676,"menu_url":null,"merchant_id":6642,"merchant_description_html":"","merchant_description":null,"merchant_name":"Thirst Juice Co.","merchant_tip_preference":"unwanted","name":null,"nearby_location_count":1,"newsletter_url":null,"open_state":"open","open_state_display":"open","opentable_url":null,"phone":"(857) 233-4535","pickup_instructions":null,"pickup_menu_url":null,"postal_code":"02108","ready_time_estimate_in_minutes":null,"region":"MA","street_address":"44 School Street","twitter_url":"https://twitter.com/ThirstJuiceCo","updated_at":"2017-07-12T16:28:39-04:00","yelp_url":"http://www.yelp.com/biz/thirst-juice-co-boston","shown":true}}]